Schul-nummer,Landkreis,Gemeinde,rechtsform,gesamtschultyp,schulname,plz,ort,strasse,Telefon- vorwahl,Telefon-nummer,Kennung Internat,Vorklassen,Grundschulen,davon an_Eingangsstufe,Grundschule (inkl. GFLX),Förderstufe,Hauptschule,Mittelstufen-schule,Realschule,gesamtschultyp,Gymnasien,davon an_Gymnasien (Mittelstufe),Gymnasien (Oberstufe),Förderschulen,Förderschule mit Förderschwerpunkt_Sehen,emotionale und soziale Entwicklung,Hören,körperliche und motorische Entwicklung,Kranke,Lernen,Sprachheil-förderung,geistige Entwicklung,Realschul-klassen,Nichtdeutscher Herkunfts- sprache,Schulen für Erwachsene,davon an_Abend-hauptschule,Abend-realschule,Abend-gymnasium,Kolleg,Schülerinnen und Schüler insgesamt mit Vorklassen,Schülerinnen und Schüler insgesamt ohne Vorklassen,fax,email,traegerschaft,schueler_gesamt,ndh_count,school_type,stadt,bundesland,data_source,data_retrieved,latitude,longitude
3100,412,000,1,,Meisterschule,65931,Frankfurt am Main,Herbert von Meister Straße 5,069,21245523,,,193,,193,,110,,,,,,,,,,,,,,,,,36,,,,,,339,339,21245518,poststelle@meisterschule.frankfurt.schulverwaltung.hessen.de,Öffentlich,339,36.0,Gesamtschule,Frankfurt am Main,Hessen,Hessisches Statistisches Landesamt Verzeichnis 6,2026-03-30,50.0792,8.51367
3101,412,000,1,,Minna-Specht-Schule,60529,Frankfurt am Main,Hans-Pfitzner-Straße 18,069,21245563,,14,244,,244,,,,,,,,,,,,,,,,,,,13,,,,,,271,257,21245556,poststelle@minna-specht-schule.frankfurt.schulverwaltung.hessen.de,Öffentlich,257,13.0,Grundschule,Frankfurt am Main,Hessen,Hessisches Statistisches Landesamt Verzeichnis 6,2026-03-30,50.0855,8.58649
3102,412,000,1,,Münzenbergerschule,60435,Frankfurt am Main,Engelthaler Straße 34,069,21238756,,17,281,,281,,,,,,,,,,,,,,,,,,,13,,,,,,311,294,21238582,poststelle@muenzenbergerschule.frankfurt.schulverwaltung.hessen.de,Öffentlich,294,13.0,Grundschule,Frankfurt am Main,Hessen,Hessisches Statistisches Landesamt Verzeichnis 6,2026-03-30,50.1506,8.68437
3103,412,000,1,,Niddaschule,65934,Frankfurt am Main,Oeserstraße 2,069,21245557,,,260,,260,,,,,,,,,,,,,,,,,,,13,,,,,,273,273,21245691,poststelle@niddaschule.frankfurt.schulverwaltung.hessen.de,Öffentlich,273,13.0,Grundschule,Frankfurt am Main,Hessen,Hessisches Statistisches Landesamt Verzeichnis 6,2026-03-30,50.1015,8.56608
3104,412,000,1,,Pestalozzischule,60386,Frankfurt am Main,Vatterstraße 1,069,21248685,,,287,,287,,,,,,,,,,,,,,,,,,,,,,,,,287,287,21248356,poststelle@pestalozzischule.frankfurt.schulverwaltung.hessen.de,Öffentlich,287,,Grundschule,Frankfurt am Main,Hessen,Hessisches Statistisches Landesamt Verzeichnis 6,2026-03-30,50.133,8.73364
3105,412,000,1,,Riedhofschule,60596,Frankfurt am Main,Riedhofweg 15 - 19,069,21235264,,8,379,,379,,,,,,,,,,,,,,,,,,,14,,,,,,401,393,21234393,poststelle@riedhofschule.frankfurt.schulverwaltung.hessen.de,Öffentlich,393,14.0,Grundschule,Frankfurt am Main,Hessen,Hessisches Statistisches Landesamt Verzeichnis 6,2026-03-30,50.0928,8.67361
3106,412,000,1,,Robert-Blum-Schule,65929,Frankfurt am Main,Gerlachstraße 1,069,21245558,,29,463,,463,,,,,,,,,,,,,,,,,,,12,,,,,,504,475,21245618,poststelle@robert-blum-schule.frankfurt.schulverwaltung.hessen.de,Öffentlich,475,12.0,Grundschule,Frankfurt am Main,Hessen,Hessisches Statistisches Landesamt Verzeichnis 6,2026-03-30,50.1073,8.5485
3107,412,000,1,,Robert-Schumann-Schule,60439,Frankfurt am Main,Heddernheimer Kirchstraße 13,069,21238734,,,377,,377,,,,,,,,,,,,,,,,,,,,,,,,,377,377,21232099,poststelle@robert-schumann-schule.frankfurt.schulverwaltung.hessen.de,Öffentlich,377,,Grundschule,Frankfurt am Main,Hessen,Hessisches Statistisches Landesamt Verzeichnis 6,2026-03-30,50.1581,8.64559
3109,412,000,1,,Walter-Kolb-Schule,65929,Frankfurt am Main,Sossenheimer Weg 50-54,069,21245478,,,377,,377,,107,,310,,,,,,,,,,,,,,,,,,,,,794,794,21233640,poststelle@walter-kolb-schule.frankfurt.schulverwaltung.hessen.de,Öffentlich,794,,Gesamtschule,Frankfurt am Main,Hessen,Hessisches Statistisches Landesamt Verzeichnis 6,2026-03-30,50.1133,8.54343
3111,412,000,1,,Gruneliusschule,60599,Frankfurt am Main,Wiener Straße 13,069,21235294,,14,402,,402,,,,,,,,,,,,,,,,,,,,,,,,,416,402,21274975,poststelle@gruneliusschule.frankfurt.schulverwaltung.hessen.de,Öffentlich,402,,Grundschule,Frankfurt am Main,Hessen,Hessisches Statistisches Landesamt Verzeichnis 6,2026-03-30,50.0978,8.72672
3112,412,000,1,,Heinrich-Kromer-Schule,60439,Frankfurt am Main,Niederurseler Landstraße 58 - 60,069,21234287,,17,371,,371,,,,,,,,,,,,,,,,,,,,,,,,,388,371,21232752,poststelle@heinrich-kromer-schule.frankfurt.schulverwaltung.hessen.de,Öffentlich,371,,Grundschule,Frankfurt am Main,Hessen,Hessisches Statistisches Landesamt Verzeichnis 6,2026-03-30,50.1657,8.62592
3113,412,000,1,,Holzhausenschule,60323,Frankfurt am Main,Miquelallee 162,069,21235256,,,472,34,438,,,,,,,,,,,,,,,,,,,12,,,,,,484,484,21233447,poststelle@holzhausenschule.frankfurt.schulverwaltung.hessen.de,Öffentlich,484,12.0,Grundschule,Frankfurt am Main,Hessen,Hessisches Statistisches Landesamt Verzeichnis 6,2026-03-30,50.1279,8.67244
3114,412,000,1,,Hostatoschule,65929,Frankfurt am Main,Hostatostraße 38,069,21245553,,15,239,,239,,187,,,,,,,,,,,,,,,,,43,,,,,,484,469,21245791,poststelle@hostatoschule.frankfurt.schulverwaltung.hessen.de,Öffentlich,469,43.0,Gesamtschule,Frankfurt am Main,Hessen,Hessisches Statistisches Landesamt Verzeichnis 6,2026-03-30,50.1009,8.54451
3115,412,000,1,,Käthe-Kollwitz-Schule,65931,Frankfurt am Main,West-Höchster-Straße 103,069,30066887,,18,305,,305,,,,,,,,,,,,,,,,,,,12,,,,,,335,317,361068,poststelle@kaethe-kollwitz-schule.frankfurt.schulverwaltung.hessen.de,Öffentlich,317,12.0,Grundschule,Frankfurt am Main,Hessen,Hessisches Statistisches Landesamt Verzeichnis 6,2026-03-30,50.0937,8.49565
3116,412,000,1,,Karl-von-Ibell-Schule,65929,Frankfurt am Main,Schmalkaldener Straße 8,069,21245164,,,429,,429,,,,,,,,,,,,,,,,,,,,,,,,,429,429,21245165,poststelle@karl-von-ibell-schule.frankfurt.schulverwaltung.hessen.de,Öffentlich,429,,Grundschule,Frankfurt am Main,Hessen,Hessisches Statistisches Landesamt Verzeichnis 6,2026-03-30,50.1094,8.52718
3117,412,000,1,,Karmeliterschule,60329,Frankfurt am Main,Moselstraße 11,069,21235338,,,112,,112,,,,,,,,,,,,,,,,,,,15,,,,,,127,127,21235215,poststelle@karmeliterschule.frankfurt.schulverwaltung.hessen.de,Öffentlich,127,15.0,Grundschule,Frankfurt am Main,Hessen,Hessisches Statistisches Landesamt Verzeichnis 6,2026-03-30,50.1066,8.66786
3118,412,000,1,,Kerschensteinerschule,60488,Frankfurt am Main,Am Spritzenhaus 2,069,21245192,,,341,,341,,,,,,,,,,,,,,,,,,,16,,,,,,357,357,21245190,poststelle@kerschensteinerschule.frankfurt.schulverwaltung.hessen.de,Öffentlich,357,16.0,Grundschule,Frankfurt am Main,Hessen,Hessisches Statistisches Landesamt Verzeichnis 6,2026-03-30,50.1326,8.62226
3120,412,000,1,,Ludwig-Richter-Schule,60433,Frankfurt am Main,Hinter den Ulmen 10,069,21233942,,,239,,239,,,,,,,,,,,,,,,,,,,10,,,,,,249,249,21232746,poststelle@ludwig-richter-schule.frankfurt.schulverwaltung.hessen.de,Öffentlich,249,10.0,Grundschule,Frankfurt am Main,Hessen,Hessisches Statistisches Landesamt Verzeichnis 6,2026-03-30,50.1548,8.66127
3121,412,000,1,,Günderrode-Schule,60326,Frankfurt am Main,Hufnagelstraße 25,069,21233086,,,377,,377,,,,,,,,,,,,,,,,,,,11,,,,,,388,388,21239092,poststelle@guenderrodeschule.frankfurt.schulverwaltung.hessen.de,Öffentlich,388,11.0,Grundschule,Frankfurt am Main,Hessen,Hessisches Statistisches Landesamt Verzeichnis 6,2026-03-30,50.1044,8.64231
3122,412,000,1,,Goldsteinschule,60529,Frankfurt am Main,Am Wiesenhof 109,069,21232991,,,479,195,284,,,,,,,,,,,,,,,,,,,,,,,,,479,479,21232872,poststelle@goldsteinschule.frankfurt.schulverwaltung.hessen.de,Öffentlich,479,,Grundschule,Frankfurt am Main,Hessen,Hessisches Statistisches Landesamt Verzeichnis 6,2026-03-30,50.0803,8.60705
3123,412,000,1,,Ackermannschule,60326,Frankfurt am Main,Ackermannstraße 37,069,21235549,,14,281,,281,,,,,,,,,,,,,,,,,,,12,,,,,,307,293,21242071,poststelle@ackermannschule.frankfurt.schulverwaltung.hessen.de,Öffentlich,293,12.0,Grundschule,Frankfurt am Main,Hessen,Hessisches Statistisches Landesamt Verzeichnis 6,2026-03-30,50.0991,8.62504
3124,412,000,1,,Adolf-Reichwein-Schule,65931,Frankfurt am Main,Lenzenbergstraße 70,069,21230790,,14,290,,290,,,,,,,,,,,,,,,,,,,,,,,,,304,290,21231632,poststelle@adolf-reichwein-schule.frankfurt.schulverwaltung.hessen.de,Öffentlich,290,,Grundschule,Frankfurt am Main,Hessen,Hessisches Statistisches Landesamt Verzeichnis 6,2026-03-30,50.1013,8.50287
3125,412,000,1,,Albert-Schweitzer-Schule,60433,Frankfurt am Main,Berkersheimer Weg 26,069,21271830,,16,263,,263,,,,,,,,,,,,,,,,,,,12,,,,,,291,275,21271965,poststelle@albert-schweitzer-schule.frankfurt.schulverwaltung.hessen.de,Öffentlich,275,12.0,Grundschule,Frankfurt am Main,Hessen,Hessisches Statistisches Landesamt Verzeichnis 6,2026-03-30,50.167,8.6745
3127,412,000,1,,August-Gräser-Schule,60529,Frankfurt am Main,Gerolsteiner Straße 2,069,21236719,,,250,,250,,,,,,,,,,,,,,,,,,,14,,,,,,264,264,21238066,poststelle@august-graeser-schule.frankfurt.schulverwaltung.hessen.de,Öffentlich,264,14.0,Grundschule,Frankfurt am Main,Hessen,Hessisches Statistisches Landesamt Verzeichnis 6,2026-03-30,50.0882,8.57697
3128,412,000,1,,Steffi-Jones-Schule,60437,Frankfurt am Main,Harheimer Weg 16,069,21238564,,,334,,334,,,,,,,,,,,,,,,,,,,13,,,,,,347,347,21238459,poststelle@steffi-jones-schule.frankfurt.schulverwaltung.hessen.de,Öffentlich,347,13.0,Grundschule,Frankfurt am Main,Hessen,Hessisches Statistisches Landesamt Verzeichnis 6,2026-03-30,50.1828,8.66858
3129,412,000,1,,Berthold-Otto-Schule,65933,Frankfurt am Main,Kiefernstraße 18 A,069,21233901,,17,313,,313,,,,,,,,,,,,,,,,,,,,,,,,,330,313,21242626,poststelle@berthold-otto-schule.frankfurt.schulverwaltung.hessen.de,Öffentlich,313,,Grundschule,Frankfurt am Main,Hessen,Hessisches Statistisches Landesamt Verzeichnis 6,2026-03-30,50.0997,8.60645
3130,412,000,1,,Elsa-Brändström-Schule,60325,Frankfurt am Main,Lindenstraße 2,069,21235266,,10,271,,271,,,,,,,,,,,,,,,,,,,,,,,,,281,271,21237772,poststelle@elsa-braendstroem-schule.frankfurt.schulverwaltung.hessen.de,Öffentlich,271,,Grundschule,Frankfurt am Main,Hessen,Hessisches Statistisches Landesamt Verzeichnis 6,2026-03-30,50.1152,8.661
3131,412,000,1,,Engelbert-Humperdinck-Schule,60322,Frankfurt am Main,Wolfsgangstraße 106,069,21235137,,,305,,305,,,,,,,,,,,,,,,,,,,10,,,,,,315,315,21238214,poststelle@engelbert-humperdinck-schule.frankfurt.schulverwaltung.hessen.de,Öffentlich,315,10.0,Grundschule,Frankfurt am Main,Hessen,Hessisches Statistisches Landesamt Verzeichnis 6,2026-03-30,50.1238,8.67077
3132,412,000,1,,Franckeschule,60487,Frankfurt am Main,Falkstraße 71,069,21235282,,13,389,,389,,,,,,,,,,,,,,,,,,,,,,,,,402,389,21234480,poststelle@franckeschule.frankfurt.schulverwaltung.hessen.de,Öffentlich,389,,Grundschule,Frankfurt am Main,Hessen,Hessisches Statistisches Landesamt Verzeichnis 6,2026-03-30,50.1248,8.64502
3133,412,000,1,,Friedrich-Fröbel-Schule,60528,Frankfurt am Main,Else-Alken-Straße 3,069,21243316,,,478,,478,,,,,,,,,,,,,,,,,,,,,,,,,478,478,21249440,poststelle@friedrich-froebel-schule.frankfurt.schulverwaltung.hessen.de,Öffentlich,478,,Grundschule,Frankfurt am Main,Hessen,Hessisches Statistisches Landesamt Verzeichnis 6,2026-03-30,50.0796,8.64294
3134,412,000,1,,Friedrich-List-Schule,65934,Frankfurt am Main,Heusingerstraße 14,069,38010022,,,332,,332,,,,,,,,,,,,,,,,,,,,,,,,,332,332,382075,poststelle@friedrich-list-schule.frankfurt.schulverwaltung.hessen.de,Öffentlich,332,,Grundschule,Frankfurt am Main,Hessen,Hessisches Statistisches Landesamt Verzeichnis 6,2026-03-30,50.1073,8.58107
3135,412,000,1,,Dahlmannschule,60385,Frankfurt am Main,Luxemburgerallee 24,069,21235278,,,367,,367,,,,,,,,,,,,,,,,,,,,,,,,,367,367,21231190,poststelle@dahlmannschule.frankfurt.schulverwaltung.hessen.de,Öffentlich,367,,Grundschule,Frankfurt am Main,Hessen,Hessisches Statistisches Landesamt Verzeichnis 6,2026-03-30,50.1189,8.71197
3136,412,000,1,,Diesterwegschule,60431,Frankfurt am Main,Ginnheimer Waldgasse 30,069,21242881,,10,369,,369,,,,,,,,,,,,,,,,,,,,,,,,,379,369,21242805,poststelle@diesterwegschule.frankfurt.schulverwaltung.hessen.de,Öffentlich,369,,Grundschule,Frankfurt am Main,Hessen,Hessisches Statistisches Landesamt Verzeichnis 6,2026-03-30,50.1455,8.65083
3137,412,000,1,,Ebelfeldschule,60488,Frankfurt am Main,Praunheimer Hohl 4,069,21235598,,9,381,,381,,,,,,,,,,,,,,,,,,,,,,,,,390,381,21230195,poststelle@ebelfeldschule.frankfurt.schulverwaltung.hessen.de,Öffentlich,381,,Grundschule,Frankfurt am Main,Hessen,Hessisches Statistisches Landesamt Verzeichnis 6,2026-03-30,50.1412,8.61348
3138,412,000,1,,Eichendorffschule,65933,Frankfurt am Main,Waldschulstraße 83,069,21243113,,,242,,242,,,,,,,,,,,,,,,,,,,12,,,,,,254,254,21242912,poststelle@eichendorffschule.frankfurt.schulverwaltung.hessen.de,Öffentlich,254,12.0,Grundschule,Frankfurt am Main,Hessen,Hessisches Statistisches Landesamt Verzeichnis 6,2026-03-30,50.1033,8.60205
3148,412,000,1,,Mühlbergschule,60599,Frankfurt am Main,Lettigkautweg 8,069,21245579,,,399,,399,,,,,,,,,,,,,,,,,,,11,,,,,,410,410,21245568,poststelle@muehlbergschule.frankfurt.schulverwaltung.hessen.de,Öffentlich,410,11.0,Grundschule,Frankfurt am Main,Hessen,Hessisches Statistisches Landesamt Verzeichnis 6,2026-03-30,50.0982,8.70286
3149,412,000,1,,Römerstadtschule,60439,Frankfurt am Main,In der Römerstadt 120 E,069,21234978,,,370,,370,,,,,,,,,,,,,,,,,,,,,,,,,370,370,21232009,poststelle@roemerstadtschule.frankfurt.schulverwaltung.hessen.de,Öffentlich,370,,Grundschule,Frankfurt am Main,Hessen,Hessisches Statistisches Landesamt Verzeichnis 6,2026-03-30,50.154,8.63315
3150,412,000,1,,Schwarzburgschule,60318,Frankfurt am Main,Lenaustraße 81,069,21233940,,,284,,284,,,,,,,,,,,,,,,,,,,,,,,,,284,284,21230750,poststelle@schwarzburgschule.frankfurt.schulverwaltung.hessen.de,Öffentlich,284,,Grundschule,Frankfurt am Main,Hessen,Hessisches Statistisches Landesamt Verzeichnis 6,2026-03-30,50.1265,8.68983
3151,412,000,1,,Textorschule,60594,Frankfurt am Main,Oppenheimer Landstraße 15,069,21241161,,,404,,404,,,,,,,,,,,,,,,,,,,11,,,,,,415,415,21239598,poststelle@textorschule.frankfurt.schulverwaltung.hessen.de,Öffentlich,415,11.0,Grundschule,Frankfurt am Main,Hessen,Hessisches Statistisches Landesamt Verzeichnis 6,2026-03-30,50.1027,8.6817
3152,412,000,1,,Theobald-Ziegler-Schule,60435,Frankfurt am Main,Theobald-Ziegler-Straße 10,069,21238755,,13,314,,314,,,,,,,,,,,,,,,,,,,,,,,,,327,314,21230706,poststelle@theobald-ziegler-schule.frankfurt.schulverwaltung.hessen.de,Öffentlich,314,,Grundschule,Frankfurt am Main,Hessen,Hessisches Statistisches Landesamt Verzeichnis 6,2026-03-30,50.1481,8.69085
3153,412,000,1,,Willemerschule,60594,Frankfurt am Main,Willemerstraße 12,069,21233529,,,336,,336,,,,,,,,,,,,,,,,,,,13,,,,,,349,349,21238523,poststelle@willemerschule.frankfurt.schulverwaltung.hessen.de,Öffentlich,349,13.0,Grundschule,Frankfurt am Main,Hessen,Hessisches Statistisches Landesamt Verzeichnis 6,2026-03-30,50.104,8.69286
3154,412,000,1,,Zentgrafenschule,60389,Frankfurt am Main,Wilhelmshöher Straße 124,069,21274050,,17,307,,307,,,,,,,,,,,,,,,,,,,,,,,,,324,307,21245632,poststelle@zentgrafenschule.frankfurt.schulverwaltung.hessen.de,Öffentlich,307,,Grundschule,Frankfurt am Main,Hessen,Hessisches Statistisches Landesamt Verzeichnis 6,2026-03-30,50.143,8.72667
3155,412,000,1,,Erich Kästner Schule,60439,Frankfurt am Main,Praunheimer Weg 44,069,21234515,,26,449,,449,,,,,,,,,,,,,,,,,,,11,,,,,,486,460,21232744,poststelle@erich-kaestner-schule.frankfurt.schulverwaltung.hessen.de,Öffentlich,460,11.0,Grundschule,Frankfurt am Main,Hessen,Hessisches Statistisches Landesamt Verzeichnis 6,2026-03-30,50.1615,8.62122
3156,412,000,1,,Brentanoschule,60489,Frankfurt am Main,Biedenkopfer Weg 33,069,21242713,,,189,,189,,,,,,,,,,,,,,,,,,,28,,,,,,217,217,21242770,poststelle@brentanoschule.frankfurt.schulverwaltung.hessen.de,Öffentlich,217,28.0,Grundschule,Frankfurt am Main,Hessen,Hessisches Statistisches Landesamt Verzeichnis 6,2026-03-30,50.1207,8.60364
3158,412,000,1,,Ludwig-Weber-Schule,65931,Frankfurt am Main,Paul-Kirchhof-Platz 13,069,21245465,,,214,84,130,,,,,,,,,,,,,,,,,,,,,,,,,214,214,21245476,poststelle@ludwig-weber-schule.frankfurt.schulverwaltung.hessen.de,Öffentlich,214,,Grundschule,Frankfurt am Main,Hessen,Hessisches Statistisches Landesamt Verzeichnis 6,2026-03-30,50.0879,8.50674
3159,412,000,1,,Heinrich-Seliger-Schule,60320,Frankfurt am Main,Mierendorffstraße 8,069,21235332,,12,395,,395,,,,,,,,,,,,,,,,,,,,,,,,,407,395,21232733,poststelle@heinrich-seliger-schule.frankfurt.schulverwaltung.hessen.de,Öffentlich,395,,Grundschule,Frankfurt am Main,Hessen,Hessisches Statistisches Landesamt Verzeichnis 6,2026-03-30,50.141,8.67439
3160,412,000,1,,Hellerhofschule,60326,Frankfurt am Main,Idsteiner Straße 47,069,21235301,,22,310,,310,,,,,,,,,,,,,,,,,,,35,,,,,,367,345,21235211,poststelle@hellerhofschule.frankfurt.schulverwaltung.hessen.de,Öffentlich,345,35.0,Grundschule,Frankfurt am Main,Hessen,Hessisches Statistisches Landesamt Verzeichnis 6,2026-03-30,50.1052,8.63372
3161,412,000,1,,Kirchnerschule,60385,Frankfurt am Main,Berger Straße 268,069,21235293,,,421,,421,,,,,,,,,,,,,,,,,,,,,,,,,421,421,21237603,poststelle@kirchnerschule.frankfurt.schulverwaltung.hessen.de,Öffentlich,421,,Grundschule,Frankfurt am Main,Hessen,Hessisches Statistisches Landesamt Verzeichnis 6,2026-03-30,50.1289,8.71214
3162,412,000,1,,Liebfrauenschule,60313,Frankfurt am Main,Schäfergasse 23,069,21235162,,14,363,,363,,,,,,,,,,,,,,,,,,,,,,,,,377,363,21231441,poststelle@liebfrauenschule.frankfurt.schulverwaltung.hessen.de,Öffentlich,363,,Grundschule,Frankfurt am Main,Hessen,Hessisches Statistisches Landesamt Verzeichnis 6,2026-03-30,50.1158,8.68464
3163,412,000,1,,Linnéschule,60385,Frankfurt am Main,Linnestraße 18 - 20,069,21235275,,,347,38,309,,,,,,,,,,,,,,,,,,,11,,,,,,358,358,21230390,poststelle@linneschule.frankfurt.schulverwaltung.hessen.de,Öffentlich,358,11.0,Grundschule,Frankfurt am Main,Hessen,Hessisches Statistisches Landesamt Verzeichnis 6,2026-03-30,50.1218,8.70664
3164,412,000,1,,Merianschule,60316,Frankfurt am Main,Burgstraße 21,069,21234479,,,305,,305,,,,,,,,,,,,,,,,,,,11,,,,,,316,316,21239851,poststelle@merianschule.frankfurt.schulverwaltung.hessen.de,Öffentlich,316,11.0,Grundschule,Frankfurt am Main,Hessen,Hessisches Statistisches Landesamt Verzeichnis 6,2026-03-30,50.1238,8.69625
3165,412,000,1,,Albrecht-Dürer-Schule,65936,Frankfurt am Main,Sossenheimer Riedstraße 13,069,21231662,,12,351,,351,,,,,,,,,,,,,,,,,,,13,,,,,,376,364,21236718,poststelle@albrecht-duerer-schule.frankfurt.schulverwaltung.hessen.de,Öffentlich,364,13.0,Grundschule,Frankfurt am Main,Hessen,Hessisches Statistisches Landesamt Verzeichnis 6,2026-03-30,50.121,8.57014
3166,412,000,1,,Berkersheimer Grundschule,60435,Frankfurt am Main,In den Gräben 5,069,21241005,,,260,,260,,,,,,,,,,,,,,,,,,,14,,,,,,274,274,21241108,poststelle@berkersheimer-grundschule.frankfurt.schulverwaltung.hessen.de,Öffentlich,274,14.0,Grundschule,Frankfurt am Main,Hessen,Hessisches Statistisches Landesamt Verzeichnis 6,2026-03-30,50.1738,8.69624
3167,412,000,1,,Boehleschule,65933,Frankfurt am Main,Jungmannstraße 3 - 5,069,21242670,,12,251,,251,,,,,,,,,,,,,,,,,,,,,,,,,263,251,21242709,poststelle@boehleschule.frankfurt.schulverwaltung.hessen.de,Öffentlich,251,,Grundschule,Frankfurt am Main,Hessen,Hessisches Statistisches Landesamt Verzeichnis 6,2026-03-30,50.0919,8.60541
3168,412,000,1,,Bonifatiusschule,60486,Frankfurt am Main,Hamburger Allee 43,069,21233527,,,237,,237,,,,,,,,,,,,,,,,,,,11,,,,,,248,248,21235486,poststelle@bonifatiusschule.frankfurt.schulverwaltung.hessen.de,Öffentlich,248,11.0,Grundschule,Frankfurt am Main,Hessen,Hessisches Statistisches Landesamt Verzeichnis 6,2026-03-30,50.1152,8.64761
3169,412,000,1,,Fried-Lübbecke-Schule,60433,Frankfurt am Main,Im Uhrig 17,069,21238754,,,171,,171,,,,,,,,,,,,,,,,,,,,,,,,,171,171,21238338,poststelle@fried-luebbecke-schule.frankfurt.schulverwaltung.hessen.de,Öffentlich,171,,Grundschule,Frankfurt am Main,Hessen,Hessisches Statistisches Landesamt Verzeichnis 6,2026-03-30,50.1638,8.65505
3170,412,000,1,,Frauenhofschule,60528,Frankfurt am Main,Niederräder Landstraße 60 - 62,069,21233059,,,378,,378,,,,,,,,,,,,,,,,,,,16,,,,,,394,394,21232711,poststelle@frauenhofschule.frankfurt.schulverwaltung.hessen.de,Öffentlich,394,16.0,Grundschule,Frankfurt am Main,Hessen,Hessisches Statistisches Landesamt Verzeichnis 6,2026-03-30,50.0889,8.65106
3171,412,000,1,,Freiligrathschule,60386,Frankfurt am Main,Fachfeldstraße 32,069,21248888,,13,452,,452,,,,,,,,,,,,,,,,,,,14,,,,,,479,466,21249111,poststelle@freiligrathschule.frankfurt.schulverwaltung.hessen.de,Öffentlich,466,14.0,Grundschule,Frankfurt am Main,Hessen,Hessisches Statistisches Landesamt Verzeichnis 6,2026-03-30,50.1202,8.76825
3172,412,000,1,,Fridtjof-Nansen-Schule,65934,Frankfurt am Main,Dürkheimer Straße 47,069,21245504,,,217,,217,,,,,,,,,,,,,,,,,,,14,,,,,,231,231,21242905,poststelle@fridtjof-nansen-schule.frankfurt.schulverwaltung.hessen.de,Öffentlich,231,14.0,Grundschule,Frankfurt am Main,Hessen,Hessisches Statistisches Landesamt Verzeichnis 6,2026-03-30,50.0983,8.57706
3173,412,000,1,,Comeniusschule,60389,Frankfurt am Main,Burgstraße 59,069,21233484,,13,313,,313,,,,,,,,,,,,,,,,,,,57,,,,,,383,370,21236612,poststelle@comeniusschule.frankfurt.schulverwaltung.hessen.de,Öffentlich,370,57.0,Grundschule,Frankfurt am Main,Hessen,Hessisches Statistisches Landesamt Verzeichnis 6,2026-03-30,50.1239,8.6962
3174,412,000,1,,Uhlandschule,60314,Frankfurt am Main,Ostendstraße 35,069,21233530,,12,301,,301,,,,,,,,,,,,,,,,,,,,,,,,,313,301,21231652,poststelle@uhlandschule.frankfurt.schulverwaltung.hessen.de,Öffentlich,301,,Grundschule,Frankfurt am Main,Hessen,Hessisches Statistisches Landesamt Verzeichnis 6,2026-03-30,50.112,8.69845
3178,412,000,2,,Isaak-Emil-Lichtigfeld-Schule,60318,Frankfurt am Main,Hebelstraße 15 - 19,069,427289800,,,360,147,213,116,,,,,222,146,76,,,,,,,,,,,,,,,,,698,698,427289899,lichtigfeld-schule@jg-ffm.de,Privat,698,,Gesamtschule,Frankfurt am Main,Hessen,Hessisches Statistisches Landesamt Verzeichnis 6,2026-03-30,50.1123,8.66047
3179,412,000,1,,Konrad-Haenisch-Schule,60386,Frankfurt am Main,Lauterbacher Straße 2,069,21245397,,10,174,,174,,91,,207,,,,,,,,,,,,,,,31,,,,,,513,503,21245415,poststelle@konrad-haenisch-schule.frankfurt.schulverwaltung.hessen.de,Öffentlich,503,31.0,Gesamtschule,Frankfurt am Main,Hessen,Hessisches Statistisches Landesamt Verzeichnis 6,2026-03-30,50.1346,8.75218
3180,412,000,1,1,Edith-Stein-Schule,65936,Frankfurt am Main,Schaumburger Straße 66 - 68,069,21242908,,,,,,,170,,288,,,,,,,,,,,,,,,28,,,,,,486,486,345004,poststelle@edith-stein.frankfurt.schulverwaltung.hessen.de,Öffentlich,486,28.0,Weiterführende Schule,Frankfurt am Main,Hessen,Hessisches Statistisches Landesamt Verzeichnis 6,2026-03-30,50.1188,8.55969
3181,412,000,1,2,Carlo-Mierendorff-Schule,60435,Frankfurt am Main,Gravensteiner Platz 2,069,21241910,,,,,,,,,,612,314,,314,,,,,,,,,,,27,,,,,,953,953,21241940,poststelle@carlo-mierendorff-schule.frankfurt.schulverwaltung.hessen.de,Öffentlich,953,27.0,Weiterführende Schule,Frankfurt am Main,Hessen,Hessisches Statistisches Landesamt Verzeichnis 6,2026-03-30,50.1544,8.69753
3654,412,000,1,,Grundschule Harheim,60437,Frankfurt am Main,In den Schafgärten 25,069,21244430,,16,277,,277,,,,,,,,,,,,,,,,,,,,,,,,,293,277,21244432,poststelle@grundschule-harheim.frankfurt.schulverwaltung.hessen.de,Öffentlich,277,,Grundschule,Frankfurt am Main,Hessen,Hessisches Statistisches Landesamt Verzeichnis 6,2026-03-30,50.1856,8.69256
3666,412,000,1,,Schule am Erlenbach,60437,Frankfurt am Main,Im Feldchen 26,069,21244999,,,196,,196,,,,,,,,,,,,,,,,,,,,,,,,,196,196,21245157,poststelle@schule-am-erlenbach.frankfurt.schulverwaltung.hessen.de,Öffentlich,196,,Grundschule,Frankfurt am Main,Hessen,Hessisches Statistisches Landesamt Verzeichnis 6,2026-03-30,50.2054,8.7106
3667,412,000,1,,Michael-Grzimek-Schule,60437,Frankfurt am Main,An der Walkmühle 10,069,21245544,,,360,,360,,,,,,,,,,,,,,,,,,,,,,,,,360,360,95000564,poststelle@michael-grzimek-schule.frankfurt.schulverwaltung.hessen.de,Öffentlich,360,,Grundschule,Frankfurt am Main,Hessen,Hessisches Statistisches Landesamt Verzeichnis 6,2026-03-30,50.2004,8.67141
3822,412,000,1,,Schule am Hang,60388,Frankfurt am Main,Am Bächelchen 23,069,21241257,,,463,,463,,,,,,,,,,,,,,,,,,,,,,,,,463,463,21241259,poststelle@schule-am-hang.frankfurt.schulverwaltung.hessen.de,Öffentlich,463,,Grundschule,Frankfurt am Main,Hessen,Hessisches Statistisches Landesamt Verzeichnis 6,2026-03-30,50.1527,8.7565
3824,412,000,1,,Schule am Landgraben,60388,Frankfurt am Main,Landgraben 2,069,21275055,,,172,,172,,,,,,,,,,,,,,,,,,,,,,,,,172,172,21241208,poststelle@schule-am-landgraben.frankfurt.schulverwaltung.hessen.de,Öffentlich,172,,Grundschule,Frankfurt am Main,Hessen,Hessisches Statistisches Landesamt Verzeichnis 6,2026-03-30,50.1569,8.74946
4002,412,000,1,,Grundschule Kalbach,60437,Frankfurt am Main,Kalbacher Hauptstraße 54,069,21244607,,,254,,254,,,,,,,,,,,,,,,,,,,,,,,,,254,254,21244929,poststelle@grundschule-kalbach.frankfurt.schulverwaltung.hessen.de,Öffentlich,254,,Grundschule,Frankfurt am Main,Hessen,Hessisches Statistisches Landesamt Verzeichnis 6,2026-03-30,50.1884,8.64165
4179,412,000,1,,Henri-Dunant-Schule,65936,Frankfurt am Main,Schaumburger Straße 62,069,21275175,,,321,,321,,,,,,,,,,,,,,,,,,,18,,,,,,339,339,21275684,poststelle@henri-dunant-schule.frankfurt.schulverwaltung.hessen.de,Öffentlich,339,18.0,Grundschule,Frankfurt am Main,Hessen,Hessisches Statistisches Landesamt Verzeichnis 6,2026-03-30,50.1189,8.5601
4208,412,000,1,,Martin-Buber-Schule,60598,Frankfurt am Main,Sachsenhäuser Landwehrweg 301,069,21245486,,,256,,256,,,,,,,,,,,,,,,,,,,,,,,,,256,256,21245480,poststelle@martin-buber-schule.frankfurt.schulverwaltung.hessen.de,Öffentlich,256,,Grundschule,Frankfurt am Main,Hessen,Hessisches Statistisches Landesamt Verzeichnis 6,2026-03-30,50.0857,8.68108
4260,412,000,2,,Freie Christliche Schule,60386,Frankfurt am Main,Orber Straße 4,069,4200030,,,197,,197,,,,153,,427,302,125,,,,,,,,,,,,,,,,,777,777,42000311,sekretariat@fcsf.de,Privat,777,,Gesamtschule,Frankfurt am Main,Hessen,Hessisches Statistisches Landesamt Verzeichnis 6,2026-03-30,50.1263,8.76471
4262,412,000,2,,Margarete-Steiff-Schule,60431,Frankfurt am Main,Platenstraße 75,069,47884680,,,173,,173,,,,,,,,,,,,,,,,,,,,,,,,,173,173,5870236,info@m‑steiff-schule.de,Privat,173,,Grundschule,Frankfurt am Main,Hessen,Hessisches Statistisches Landesamt Verzeichnis 6,2026-03-30,50.1609,8.62134
4268,412,000,2,,Freie Schule Frankfurt,60596,Frankfurt am Main,Vogelweidstraße 3,069,636750,,,47,,47,25,,,,,,,,,,,,,,,,,,,,,,,,72,72,636750,info@freieschulefrankfurt.de,Privat,72,,Gesamtschule,Frankfurt am Main,Hessen,Hessisches Statistisches Landesamt Verzeichnis 6,2026-03-30,50.0972,8.66766
4288,412,000,1,,Michael-Ende-Schule,60489,Frankfurt am Main,Niddagaustraße 29,069,21244197,,14,416,,416,,176,,164,,,,,,,,,,,,,,,44,,,,,,814,800,21244371,poststelle@michael-ende-schule.frankfurt.schulverwaltung.hessen.de,Öffentlich,800,44.0,Gesamtschule,Frankfurt am Main,Hessen,Hessisches Statistisches Landesamt Verzeichnis 6,2026-03-30,50.1284,8.61129
4293,412,000,2,,International Bilingual Montessori School,60325,Frankfurt am Main,Senckenberganlage 20 - 22,069,745646,,,139,53,86,,,,,,,,,,,,,,,,,,,,,,,,,139,139,745632,office@ibms-frankfurt.com,Privat,139,,Grundschule,Frankfurt am Main,Hessen,Hessisches Statistisches Landesamt Verzeichnis 6,2026-03-30,50.115,8.65987
4301,412,000,1,,Astrid-Lindgren-Schule,60431,Frankfurt am Main,Platenstraße 75,069,21245662,,16,322,,322,,,,,,,,,,,,,,,,,,,13,,,,,,351,335,21245660,poststelle@astrid-lindgren-schule.frankfurt.schulverwaltung.hessen.de,Öffentlich,335,13.0,Grundschule,Frankfurt am Main,Hessen,Hessisches Statistisches Landesamt Verzeichnis 6,2026-03-30,50.1378,8.6624
4324,412,000,2,,Lycée Français Victor Hugo,60488,Frankfurt am Main,Gontardstraße 11,069,7474980,,,289,,289,,,,,,241,241,,,,,,,,,,,,,,,,,,530,530,747498142,secretariat@lfvh.net,Privat,530,,Gesamtschule,Frankfurt am Main,Hessen,Hessisches Statistisches Landesamt Verzeichnis 6,2026-03-30,50.1349768,8.6077897
4325,412,000,2,2,Aktive Schule Frankfurt,60433,Frankfurt am Main,Wacholderweg 5,069,54000984,,,36,,36,,,,,42,,,,,,,,,,,,,,,,,,,,78,78,54000985,aktive-schule-frankfurt@t-online.de,Privat,78,,Grundschule,Frankfurt am Main,Hessen,Hessisches Statistisches Landesamt Verzeichnis 6,2026-03-30,50.1651,8.67902
4380,412,000,1,,Grundschule Riedberg,60438,Frankfurt am Main,Zur Kalbacher Höhe 15,069,21273300,,,394,,394,,,,,,,,,,,,,,,,,,,,,,,,,394,394,21273330,poststelle@grundschule-riedberg.frankfurt.schulverwaltung.hessen.de,Öffentlich,394,,Grundschule,Frankfurt am Main,Hessen,Hessisches Statistisches Landesamt Verzeichnis 6,2026-03-30,50.1778779,8.6380448
4381,412,000,2,,Erasmus Frankfurter Stadtschule,60314,Frankfurt am Main,Sonnemannstraße 9 - 11,069,90743640,,,354,,354,,,,,,,,,,,,,,,,,,,,,,,,,354,354,907436412,info@erasmus-schule.eu,Privat,354,,Grundschule,Frankfurt am Main,Hessen,Hessisches Statistisches Landesamt Verzeichnis 6,2026-03-30,50.1100273,8.6973096
4382,412,000,2,2,Metropolitan School Frankfurt,60489,Frankfurt am Main,Eschborner Landstraße 134-138,069,96864050,,,232,,232,,,,,276,,,,,,,,,,,,,,,,,,,,508,508,968640520,ferres@m-school.de,Privat,508,,Grundschule,Frankfurt am Main,Hessen,Hessisches Statistisches Landesamt Verzeichnis 6,2026-03-30,50.1295,8.59543
4383,412,000,2,,Phorms Frankfurt,60322,Frankfurt am Main,Fürstenberger Straße 3 - 9,069,17392550,,,895,174,721,,,,,,292,227,65,,,,,,,,,,,,,,,,,1187,1187,17392574,frankfurt@phorms.de,Privat,1187,,Gesamtschule,Frankfurt am Main,Hessen,Hessisches Statistisches Landesamt Verzeichnis 6,2026-03-30,50.1256666,8.6807275
4384,412,000,1,,Liesel-Oestreicher-Schule,60435,Frankfurt am Main,Boskoopstraße 6,069,21273475,,,345,,345,,,,,,,,,,,,,,,,,,,,,,,,,345,345,21273500,poststelle.liesel-oestreicher-schule@stadt-frankfurt.de,Öffentlich,345,,Grundschule,Frankfurt am Main,Hessen,Hessisches Statistisches Landesamt Verzeichnis 6,2026-03-30,50.1571,8.69986
4385,412,000,1,,Ludwig-Börne-Schule,60311,Frankfurt am Main,Lange Straße 30-36,069,21233056,,,,,,,149,,234,,,,,,,,,,,,,,,50,,,,,,433,433,21231646,poststelle@ludwig-boerne-schule.frankfurt.schulverwaltung.hessen.de,Öffentlich,433,50.0,Weiterführende Schule,Frankfurt am Main,Hessen,Hessisches Statistisches Landesamt Verzeichnis 6,2026-03-30,50.1141171,8.6936718
4386,412,000,1,2,IGS Herder,60316,Frankfurt am Main,Wittelsbacher Allee 6-12,069,21235334,,,,,,,,,,571,,,,,,,,,,,,,,14,,,,,,585,585,21240536,poststelle@igs-herder.frankfurt.schulverwaltung.hessen.de,Öffentlich,585,14.0,Gesamtschule,Frankfurt am Main,Hessen,Hessisches Statistisches Landesamt Verzeichnis 6,2026-03-30,50.1178,8.70154
4387,412,000,1,,Gymnasium Riedberg,60438,Frankfurt am Main,Friedrich-Dessauer-Straße 2,069,21244001,,,,,,,,,,,1475,1083,392,,,,,,,,,,,24,,,,,,1499,1499,21244755,poststelle@gymnasium-riedberg.frankfurt.schulverwaltung.hessen.de,Öffentlich,1499,24.0,Gymnasium,Frankfurt am Main,Hessen,Hessisches Statistisches Landesamt Verzeichnis 6,2026-03-30,50.177,8.63504
4388,412,000,1,,Panoramaschule,65934,Frankfurt am Main,Werner-Bockelmann-Straße 3,069,21271008,,,,,,,,,,,,,,181,,,,,,,,181,,,,,,,,181,181,21271049,poststelle@pbb.frankfurt.schulverwaltung.hessen.de,Öffentlich,181,,Förderschule,Frankfurt am Main,Hessen,Hessisches Statistisches Landesamt Verzeichnis 6,2026-03-30,50.1037855,8.577786
4389,412,000,2,,Rackow-Schule Frankfurt,60320,Frankfurt am Main,Eckenheimer Landstraße 303,069,552754,,,,,,,,,147,,132,132,,,,,,,,,,,,,,,,,,279,279,557763,poststelle@rackow.frankfurt.schulverwaltung.hessen.de,Privat,279,,Weiterführende Schule,Frankfurt am Main,Hessen,Hessisches Statistisches Landesamt Verzeichnis 6,2026-03-30,50.1391219,8.6843858
4390,412,000,2,,ASB Erasmus Frankfurter Stadtschule,60314,Frankfurt am Main,Sonnemannstraße 9 - 11,069,25628890,,,,,,,,,,,202,162,40,,,,,,,,,,,,,,,,,202,202,2562889150,gymnasium@erasmus-frankfurt.de,Privat,202,,Weiterführende Schule,Frankfurt am Main,Hessen,Hessisches Statistisches Landesamt Verzeichnis 6,2026-03-30,50.1100273,8.6973096
4391,412,000,1,2,IGS West,65929,Frankfurt am Main,Palleskestraße 20,069,21247087,,,,,,,,,,565,,,,,,,,,,,,,,29,,,,,,594,594,21247093,poststelle@igswest.frankfurt.schulverwaltung.hessen.de,Öffentlich,594,29.0,Gesamtschule,Frankfurt am Main,Hessen,Hessisches Statistisches Landesamt Verzeichnis 6,2026-03-30,50.1049704,8.5551009
4392,412,000,2,,Main Schule,60313,Frankfurt am Main,Stiftstraße 30,069,57801643,,,33,,33,,,,,,,,,,,,,,,,,,,,,,,,,33,33,95454575,info@main-schule.de,Privat,33,,Grundschule,Frankfurt am Main,Hessen,Hessisches Statistisches Landesamt Verzeichnis 6,2026-03-30,50.1164933,8.6812911
4393,412,000,2,2,IKS - Interkulturelle Schule Rhein-Main,60433,Frankfurt am Main,Kaiserkronenweg 1,069,27997180,,,71,,71,,,,,130,,,,,,,,,,,,,,,,,,,,201,201,27997182,info@iks-rhein-main.de,Privat,201,,Grundschule,Frankfurt am Main,Hessen,Hessisches Statistisches Landesamt Verzeichnis 6,2026-03-30,50.1094,8.66743
4394,412,000,2,,Alexander-Puschkin-Schule,60596,Frankfurt am Main,Stresemannallee 30,069,68097839,,,108,,108,,,,,,,,,,,,,,,,,,,,,,,,,108,108,68097838,info@alexander-puschkin-schule.org,Privat,108,,Grundschule,Frankfurt am Main,Hessen,Hessisches Statistisches Landesamt Verzeichnis 6,2026-03-30,50.0960202,8.670427
4395,412,000,1,,Valentin-Senger-Schule,60389,Frankfurt am Main,Valentin-Senger-Straße 9,069,21233095,,,277,,277,,,,,,,,,,,,,,,,,,,,,,,,,277,277,21234724,poststelle@valentin-senger.Frankfurt.schulverwaltung.hessen.de,Öffentlich,277,,Grundschule,Frankfurt am Main,Hessen,Hessisches Statistisches Landesamt Verzeichnis 6,2026-03-30,50.1398952,8.7005427
4396,412,000,1,,Marie-Curie-Schule,60438,Frankfurt am Main,Gr.-v.-Stauffenberg-Allee 55,069,21277303,,,438,,438,,,,,,,,,,,,,,,,,,,,,,,,,438,438,21277345,poststelle@marie-curie.frankfurt.schulverwaltung.hessen.de,Öffentlich,438,,Grundschule,Frankfurt am Main,Hessen,Hessisches Statistisches Landesamt Verzeichnis 6,2026-03-30,50.1818,8.62449
4397,412,000,1,,Adorno-Gymnasium,60323,Frankfurt am Main,Miquelallee,069,21271917,,,,,,,,,,,1287,1052,235,,,,,,,,,,,13,,,,,,1300,1300,21275975,poststelle@adorno.frankfurt.schulverwaltung.hessen.de,Öffentlich,1300,13.0,Gymnasium,Frankfurt am Main,Hessen,Hessisches Statistisches Landesamt Verzeichnis 6,2026-03-30,50.1313088,8.6621918
4398,412,000,1,,Viktoria-Luise-Schule,60486,Frankfurt am Main,Leonardo-da-Vinci-Allee 11,069,21277306,,,357,,357,,,,,,,,,,,,,,,,,,,15,,,,,,372,372,21277317,poststelle.viktoria-luise-schule@stadt-frankfurt.de,Öffentlich,372,15.0,Grundschule,Frankfurt am Main,Hessen,Hessisches Statistisches Landesamt Verzeichnis 6,2026-03-30,50.1130506,8.6250304
4399,412,000,1,2,IGS Süd,60596,Frankfurt am Main,Textorstraße 104,069,21275401,,,,,,,,,,574,,,,,,,,,,,,,,22,,,,,,596,596,–,poststelle@igs-sued.frankfurt.schulverwaltung.hessen.de,Öffentlich,596,22.0,Gesamtschule,Frankfurt am Main,Hessen,Hessisches Statistisches Landesamt Verzeichnis 6,2026-03-30,50.0986512,8.6791754
4400,412,000,1,1,KGS Niederrad,60528,Frankfurt am Main,Mainfeldstraße 45,069,21244744,,,,,,,125,,383,,568,404,164,,,,,,,,,,,31,,,,,,1107,1107,–,poststelle@kgs-niederrad.frankfurt.schulverwaltung.hessen.de,Öffentlich,1107,31.0,Sonstige,Frankfurt am Main,Hessen,Hessisches Statistisches Landesamt Verzeichnis 6,2026-03-30,50.0907847,8.6428356
4401,412,000,1,,Gymnasium Nord (Westhausen),60488,Frankfurt am Main,Muckermannstraße 1,069,21275399,,,,,,,,,,,1397,1107,290,,,,,,,,,,,,,,,,,1397,1397,21274078,poststelle@gymnasium-nord.frankfurt.schulverwaltung.hessen.de,Öffentlich,1397,,Gymnasium,Frankfurt am Main,Hessen,Hessisches Statistisches Landesamt Verzeichnis 6,2026-03-30,50.1393,8.6099
4402,412,000,1,,Grundschule Europaviertel,60326,Frankfurt am Main,Stephensonstraße 2,069,21270935,,,331,,331,,,,,,,,,,,,,,,,,,,13,,,,,,344,344,21234389,poststelle@g.europaviertel.frankfurt.schulverwaltung.hessen.de,Öffentlich,344,13.0,Grundschule,Frankfurt am Main,Hessen,Hessisches Statistisches Landesamt Verzeichnis 6,2026-03-30,50.1072615,8.6406666
4403,412,000,1,2,Josephine-Baker-Gesamtschule,60438,Frankfurt am Main,Gräfin-Dönhoff-Straße 11,069,21275644,,,,,,,,,,567,,,,,,,,,,,,,,23,,,,,,590,590,–,poststelle@josephine-baker-schule.frankfurt.schulverwaltung.hessen.de,Öffentlich,590,23.0,Gesamtschule,Frankfurt am Main,Hessen,Hessisches Statistisches Landesamt Verzeichnis 6,2026-03-30,50.1801612,8.637293
4404,412,000,2,,Grundschule Fintosch,60325,Frankfurt am Main,Schumannstraße 4 - 6,069,77076911,,,58,14,44,,,,,,,,,,,,,,,,,,,,,,,,,58,58,77076912,info@fintosch.com,Privat,58,,Grundschule,Frankfurt am Main,Hessen,Hessisches Statistisches Landesamt Verzeichnis 6,2026-03-30,50.1133881,8.6550581
4405,412,000,1,,Toni-Sender-Oberstufe,60486,Frankfurt am Main,Voltastraße 1a,069,21244355,,,,,,,,,,,469,,469,,,,,,,,,,,,,,,,,469,469,–,poststelle@tso.frankfurt.schulverwaltung.hessen.de,Öffentlich,469,,Gymnasium,Frankfurt am Main,Hessen,Hessisches Statistisches Landesamt Verzeichnis 6,2026-03-30,50.1165541,8.6415209
4406,412,000,1,2,IGS 15,65929,Frankfurt am Main,Palleskestraße 60,069,21271432,,,,,,,,,,600,,,,,,,,,,,,,,13,,,,,,613,613,–,poststelle@igs15.frankfurt.schulverwaltung.hessen.de,Öffentlich,613,13.0,Gesamtschule,Frankfurt am Main,Hessen,Hessisches Statistisches Landesamt Verzeichnis 6,2026-03-30,50.1092,8.54279
4407,412,000,1,,Gymnasium Römerhof,60486,Frankfurt am Main,Am Römerhof 13 c,069,21270738,,,,,,,,,,,904,821,83,,,,,,,,,,,18,,,,,,922,922,21234389,poststelle@gym-roemerhof.frankfurt.schulverwaltung.hessen.de,Öffentlich,922,18.0,Gymnasium,Frankfurt am Main,Hessen,Hessisches Statistisches Landesamt Verzeichnis 6,2026-03-30,50.1075,8.6086
4412,412,000,1,,Judith-Kerr-Schule,60438,Frankfurt am Main,Carl-Hermann-Rudloff-Allee 11,069,21245432,,,171,,171,,,,,,,,,,,,,,,,,,,14,,,,,,185,185,21245415,poststelle@judith-kerr-schule.frankfurt.schulverwaltung.hessen.de,Öffentlich,185,14.0,Grundschule,Frankfurt am Main,Hessen,Hessisches Statistisches Landesamt Verzeichnis 6,2026-03-30,50.1757883,8.6164185
4413,412,000,1,2,Johanna-Tesch-Schule,60487,Frankfurt am Main,Falkstraße 60,069,21241134,,,,,,,,,,856,,,,,,,,,,,,,,,,,,,,856,856,–,poststelle@igs-norden.frankfurt.schulverwaltung.hessen.de,Öffentlich,856,,Weiterführende Schule,Frankfurt am Main,Hessen,Hessisches Statistisches Landesamt Verzeichnis 6,2026-03-30,50.1244911,8.6463671
4415,412,000,1,,Stadtgymnasium Frankfurt,60487,Frankfurt am Main,Neue Börsenstraße 1,069,21249470,,,,,,,,,,,132,132,,,,,,,,,,,,,,,,,,132,132,–,poststelle.stadtgymnasium-frankfurt@stadt-frankfurt.de,Öffentlich,132,,Gymnasium,Frankfurt am Main,Hessen,Hessisches Statistisches Landesamt Verzeichnis 6,2026-03-30,50.1255059,8.6297126
4417,412,000,1,,Neues Gymnasium Frankfurt,60487,Frankfurt am Main,Neue Börsenstraße 1,069,21249480,,,,,,,,,,,128,128,,,,,,,,,,,,,,,,,,128,128,–,poststelle.neues-gymnasium-frankfurt@stadt-frankfurt.de,Öffentlich,128,,Gymnasium,Frankfurt am Main,Hessen,Hessisches Statistisches Landesamt Verzeichnis 6,2026-03-30,50.1255059,8.6297126
4419,412,000,2,,Karl Popper Schule,60528,Frankfurt am Main,Lyoner Straße 34,069,870046980,,,,,,,,,,,137,137,,,,,,,,,,,,,,,,,,137,137,–,mail@k-p-schule.de,Privat,137,,Weiterführende Schule,Frankfurt am Main,Hessen,Hessisches Statistisches Landesamt Verzeichnis 6,2026-03-30,50.0788933,8.6234083
4426,412,000,1,,Gymnasium Süd,60594,Frankfurt am Main,Diesterwegstraße 11,069,21241170,,,,,,,,,,,437,437,,,,,,,,,,,,,,,,,,437,437,21244710,poststelle@gym-sued.frankfurt.schulverwaltung.hessen.de,Öffentlich,437,,Gymnasium,Frankfurt am Main,Hessen,Hessisches Statistisches Landesamt Verzeichnis 6,2026-03-30,50.1017082,8.68286
4601,412,000,1,,Viktor-Frankl-Schule,60320,Frankfurt am Main,Fritz-Tarnow-Straße 27,069,21235132,,,,,,,,,,,,,,140,,,,140,,,,,,,,,,,,140,140,21232058,poststelle@viktor-frankl-schule.frankfurt.schulverwaltung.hessen.de,Öffentlich,140,,Förderschule,Frankfurt am Main,Hessen,Hessisches Statistisches Landesamt Verzeichnis 6,2026-03-30,50.1433,8.67142
4602,412,000,1,,Kasinoschule,65929,Frankfurt am Main,Kasinostraße 4,069,21245554,,,,,,,,,,,,,,165,,,,,,165,,,,,,,,,,165,165,21245843,poststelle@kasinoschule.frankfurt.schulverwaltung.hessen.de,Öffentlich,165,,Förderschule,Frankfurt am Main,Hessen,Hessisches Statistisches Landesamt Verzeichnis 6,2026-03-30,50.1019,8.54974
4604,412,000,2,,Michael-Schule,65933,Frankfurt am Main,Eichhörnchenpfad 4,069,93995580,,,,,,,,,,,,,,58,,6,,4,,5,1,42,,,,,,,,58,58,939955820,info@michael-schule-frankfurt.de,Privat,58,,Förderschule,Frankfurt am Main,Hessen,Hessisches Statistisches Landesamt Verzeichnis 6,2026-03-30,50.1031,8.58998
4605,412,000,1,,Heinrich-Hoffmann-Schule,60528,Frankfurt am Main,Marienburgstraße 4,069,21231115,,,,,,,,,,,,,,39,,,,,39,,,,,,,,,,,39,39,21275959,poststelle@heinrich-hoffmann-schule.frankfurt.schulverwaltung.hessen.de,Öffentlich,39,,Förderschule,Frankfurt am Main,Hessen,Hessisches Statistisches Landesamt Verzeichnis 6,2026-03-30,50.0986,8.66817
4606,412,000,1,,Mosaikschule,60439,Frankfurt am Main,Gerhart-Hauptmann-Ring 240 a,069,21270277,,,,,,,,,,,,,,164,,,,,,,,164,,,,,,,,164,164,21270040,poststelle@mosaikschule.frankfurt.schulverwaltung.hessen.de,Öffentlich,164,,Förderschule,Frankfurt am Main,Hessen,Hessisches Statistisches Landesamt Verzeichnis 6,2026-03-30,50.1625,8.61202
4607,412,000,1,,Weißfrauenschule,60329,Frankfurt am Main,Gutleutstraße 38,069,21235670,,18,,,,,,,,,,,,121,,,,,,,121,,,,,,,,,139,121,21240533,poststelle@weissfrauenschule.frankfurt.schulverwaltung.hessen.de,Öffentlich,121,,Förderschule,Frankfurt am Main,Hessen,Hessisches Statistisches Landesamt Verzeichnis 6,2026-03-30,50.1059,8.66775
4608,412,000,1,,Hermann-Herzog-Schule,60327,Frankfurt am Main,Gutleutstraße 295 - 301,069,24268670,,,,,,,,,,,,,,98,90,,,,,,,,8,,,,,,,98,98,24268639,poststelle@hermann-herzog-schule.frankfurt.schulverwaltung.hessen.de,Öffentlich,98,,Förderschule,Frankfurt am Main,Hessen,Hessisches Statistisches Landesamt Verzeichnis 6,2026-03-30,50.1432,8.67488
4609,412,000,1,,Hermann-Luppe-Schule,60488,Frankfurt am Main,An der Praunheimer Mühle 7,069,21232188,,,,,,,,,,,,,,56,,56,,,,,,,,,,,,,,56,56,21238763,poststelle@schule-fuer-erziehungshilfe.frankfurt.schulverwaltung.hessen.de,Öffentlich,56,,Förderschule,Frankfurt am Main,Hessen,Hessisches Statistisches Landesamt Verzeichnis 6,2026-03-30,50.1508,8.62482
4610,412,000,1,,Fritz-Redl-Schule,65929,Frankfurt am Main,Kurmainzer Straße 20,069,21242021,,,,,,,,,,,,,,36,,36,,,,,,,,,,,,,,36,36,21248599,poststelle@fritz-redl-schule.frankfurt.schulverwaltung.hessen.de,Öffentlich,36,,Förderschule,Frankfurt am Main,Hessen,Hessisches Statistisches Landesamt Verzeichnis 6,2026-03-30,50.2843,8.58635
4611,412,000,1,,Bürgermeister-Grimm-Schule,60326,Frankfurt am Main,Ackermannstraße 39,069,21235509,,,,,,,,,,,,,,117,,,,,,117,,,,,,,,,,117,117,21242570,poststelle@buergermeister-grimm-schule.frankfurt.schulverwaltung.hessen.de,Öffentlich,117,,Förderschule,Frankfurt am Main,Hessen,Hessisches Statistisches Landesamt Verzeichnis 6,2026-03-30,50.0993,8.6256
4612,412,000,1,,Charles-Hallgarten-Schule,60386,Frankfurt am Main,Am Bornheimer Hang 10,069,21277010,,,,,,,,,,,,,,146,,,,,,58,,88,,,,,,,,146,146,21277050,poststelle@hallgartenschule.frankfurt.schulverwaltung.hessen.de,Öffentlich,146,,Förderschule,Frankfurt am Main,Hessen,Hessisches Statistisches Landesamt Verzeichnis 6,2026-03-30,50.1327,8.72044
4614,412,000,1,,Johann-Hinrich-Wichern-Schule,60433,Frankfurt am Main,Victor-Gollancz-Weg 4,069,21235134,,,,,,,,,,,,,,265,,,,,,265,,,,,,,,,,265,265,21232753,poststelle@johann-hinrich-wichern-schule.frankfurt.schulverwaltung.hessen.de,Öffentlich,265,,Förderschule,Frankfurt am Main,Hessen,Hessisches Statistisches Landesamt Verzeichnis 6,2026-03-30,50.1581,8.6622
4677,412,000,2,,Schule im Reinhardshof,60437,Frankfurt am Main,Alt-Erlenbach 87,06101,545061,%,,,,,,,,,,,,,17,,17,,,,,,,,,,,,,,17,17,545030,schule@kinderheimat-reinhardshof.de,Privat,17,,Förderschule,Frankfurt am Main,Hessen,Hessisches Statistisches Landesamt Verzeichnis 6,2026-03-30,50.2034,8.70878
4752,412,000,1,,Schule am Sommerhoffpark,60327,Frankfurt am Main,Gutleutstraße 295,069,2426860,,15,,,,,,,,,,,,156,,,156,,,,,,,,,,,,,171,156,24268620,poststelle@sas.frankfurt.schulverwaltung.hessen.de,Öffentlich,156,,Förderschule,Frankfurt am Main,Hessen,Hessisches Statistisches Landesamt Verzeichnis 6,2026-03-30,50.106,8.66806
4758,412,000,2,,Schule am Sachsenhäuser Berg,60599,Frankfurt am Main,Hainer Weg 98,069,6809090,,,,,,,,,,,,,,138,,,,,138,,,,,,,,,,,138,138,68090922,poststelle@sachsenhaeuserberg.frankfurt.schulverwaltung.hessen.de,Privat,138,,Förderschule,Frankfurt am Main,Hessen,Hessisches Statistisches Landesamt Verzeichnis 6,2026-03-30,50.0966441,8.6943686
4771,412,000,2,,Alois-Eckert-Schule,60318,Frankfurt am Main,Eschenheimer Anlage 20 A,069,5962716,,,,,,,,,,,,,,43,,43,,,,,,,,,,,,,,43,43,59790150,alois-eckert-schule@t-online.de,Privat,43,,Förderschule,Frankfurt am Main,Hessen,Hessisches Statistisches Landesamt Verzeichnis 6,2026-03-30,50.1198,8.6879
4782,412,000,1,,Berthold-Simonsohn-Schule,60326,Frankfurt am Main,Kostheimer Straße 11 - 13,069,21239407,,,,,,,,,,,,,,14,,13,,,,1,,,,,,,,,,14,14,21239093,poststelle@berthold-simonsohn-schule.frankfurt.schulverwaltung.hessen.de,Öffentlich,14,,Förderschule,Frankfurt am Main,Hessen,Hessisches Statistisches Landesamt Verzeichnis 6,2026-03-30,50.1035171,8.640238
4786,412,000,2,,Schule im Monikahaus,60326,Frankfurt am Main,Kriegkstraße 36,069,9738230,,,,,,,,,,,,,,20,,20,,,,,,,,,,,,,,20,20,97382358,monikahaus@skf-frankfurt.de,Privat,20,,Förderschule,Frankfurt am Main,Hessen,Hessisches Statistisches Landesamt Verzeichnis 6,2026-03-30,50.1034868,8.6393656
5001,412,000,1,,Geschwister-Scholl-Schule,60439,Frankfurt am Main,Hadrianstraße 18,069,21238753,,,,,,,,,466,,,,,,,,,,,,,,,41,,,,,,507,507,21240337,poststelle@geschwister-scholl-schule.frankfurt.schulverwaltung.hessen.de,Öffentlich,507,41.0,Weiterführende Schule,Frankfurt am Main,Hessen,Hessisches Statistisches Landesamt Verzeichnis 6,2026-03-30,50.1526,8.6377
5002,412,000,1,,Brüder-Grimm-Schule,60385,Frankfurt am Main,Luxemburgerallee 1 - 3,069,21235277,,,,,,,,,328,,,,,,,,,,,,,,,25,,,,,,353,353,21235164,poststelle@brueder-grimm-schule.frankfurt.schulverwaltung.hessen.de,Öffentlich,353,25.0,Weiterführende Schule,Frankfurt am Main,Hessen,Hessisches Statistisches Landesamt Verzeichnis 6,2026-03-30,50.1199,8.71195
5003,412,000,1,,Deutschherrenschule,60594,Frankfurt am Main,Willemerstraße 24,069,21235335,,,,,,,,,385,,,,,,,,,,,,,,,14,,,,,,399,399,21234563,poststelle@deutschherrenschule.frankfurt.schulverwaltung.hessen.de,Öffentlich,399,14.0,Weiterführende Schule,Frankfurt am Main,Hessen,Hessisches Statistisches Landesamt Verzeichnis 6,2026-03-30,50.1044,8.69442
5004,412,000,1,,Anne-Frank-Schule,60320,Frankfurt am Main,Fritz-Tarnow-Straße 29,069,21238752,,,,,,,,,535,,,,,,,,,,,,,,,21,,,,,,556,556,21231874,poststelle@anne-frank-schule.frankfurt.schulverwaltung.hessen.de,Öffentlich,556,21.0,Weiterführende Schule,Frankfurt am Main,Hessen,Hessisches Statistisches Landesamt Verzeichnis 6,2026-03-30,50.1432,8.67164
5007,412,000,1,,Louise-von-Rothschild-Schule,60389,Frankfurt am Main,Usinger Straße 24,069,21235341,,,,,,,,,355,,,,,,,,,,,,,,,23,,,,,,378,378,21234431,poststelle@louise-von-rothschild.frankfurt.schulverwaltung.hessen.de,Öffentlich,378,23.0,Weiterführende Schule,Frankfurt am Main,Hessen,Hessisches Statistisches Landesamt Verzeichnis 6,2026-03-30,50.131,8.70609
5010,412,000,1,,Falkschule,60327,Frankfurt am Main,Ludwigstraße 34 - 38,069,21233526,,,,,,,,,393,,,,,,,,,,,,,,,21,,,,,,414,414,21237615,poststelle@falkschule.frankfurt.schulverwaltung.hessen.de,Öffentlich,414,21.0,Weiterführende Schule,Frankfurt am Main,Hessen,Hessisches Statistisches Landesamt Verzeichnis 6,2026-03-30,50.1091,8.65824
5012,412,000,1,,Fürstenbergerschule,60322,Frankfurt am Main,Fürstenbergerstraße 152,069,21235145,,,,,,,,,356,,,,,,,,,,,,,,,42,,,,,,398,398,21231088,poststelle@fuerstenbergerschule.frankfurt.schulverwaltung.hessen.de,Öffentlich,398,42.0,Weiterführende Schule,Frankfurt am Main,Hessen,Hessisches Statistisches Landesamt Verzeichnis 6,2026-03-30,50.1241,8.67105
5013,412,000,1,,Robert-Koch-Schule,65929,Frankfurt am Main,Luciusstraße 2,069,21245567,,,,,,,,,555,,,,,,,,,,,,,,,16,,,,,,571,571,21245805,poststelle@robert-koch-schule.frankfurt.schulverwaltung.hessen.de,Öffentlich,571,16.0,Weiterführende Schule,Frankfurt am Main,Hessen,Hessisches Statistisches Landesamt Verzeichnis 6,2026-03-30,50.0981,8.54268
5101,412,000,1,,Wöhlerschule,60320,Frankfurt am Main,Mierendorffstraße 6,069,21235333,,,,,,,,,,,1327,941,386,,,,,,,,,,,11,,,,,,1338,1338,21232057,poststelle@woehlerschule.frankfurt.schulverwaltung.hessen.de,Öffentlich,1338,11.0,Weiterführende Schule,Frankfurt am Main,Hessen,Hessisches Statistisches Landesamt Verzeichnis 6,2026-03-30,50.1414,8.67419
5102,412,000,1,,Elisabethenschule,60322,Frankfurt am Main,Vogtstraße 35 - 37,069,21235144,,,,,,,,,,,1183,842,341,,,,,,,,,,,15,,,,,,1198,1198,21231320,poststelle@elisabethenschule.frankfurt.schulverwaltung.hessen.de,Öffentlich,1198,15.0,Weiterführende Schule,Frankfurt am Main,Hessen,Hessisches Statistisches Landesamt Verzeichnis 6,2026-03-30,50.1257,8.67553
5104,412,000,1,,Carl-Schurz-Schule,60596,Frankfurt am Main,Holbeinstraße 21 - 23,069,21233840,,,,,,,,,,,899,571,328,,,,,,,,,,,,,,,,,899,899,21240554,poststelle@carl-schurz-schule.frankfurt.schulverwaltung.hessen.de,Öffentlich,899,,Weiterführende Schule,Frankfurt am Main,Hessen,Hessisches Statistisches Landesamt Verzeichnis 6,2026-03-30,50.1008,8.67605
5105,412,000,1,,Ziehenschule,60433,Frankfurt am Main,Josephskirchstraße 9,069,21234147,,,,,,,,,,,1298,918,380,,,,,,,,,,,,,,,,,1298,1298,21232060,poststelle@ziehenschule.frankfurt.schulverwaltung.hessen.de,Öffentlich,1298,,Weiterführende Schule,Frankfurt am Main,Hessen,Hessisches Statistisches Landesamt Verzeichnis 6,2026-03-30,50.1563,8.65964
5106,412,000,1,,Bettinaschule,60325,Frankfurt am Main,Feuerbachstraße 37 - 47,069,21233028,,,,,,,,,,,937,663,274,,,,,,,,,,,,,,,,,937,937,21234975,poststelle@bettinaschule.frankfurt.schulverwaltung.hessen.de,Öffentlich,937,,Weiterführende Schule,Frankfurt am Main,Hessen,Hessisches Statistisches Landesamt Verzeichnis 6,2026-03-30,50.1163,8.66293
5107,412,000,1,,Helene-Lange-Schule,65929,Frankfurt am Main,Breuerwiesenstraße 4,069,21245503,,,,,,,,,,,667,667,,,,,,,,,,,,13,,,,,,680,680,21245766,poststelle.helene-lange-schule@stadt-frankfurt.de,Öffentlich,680,13.0,Weiterführende Schule,Frankfurt am Main,Hessen,Hessisches Statistisches Landesamt Verzeichnis 6,2026-03-30,50.1071,8.55401
5108,412,000,1,,Helmholtzschule,60385,Frankfurt am Main,Habsburgerallee 57 - 59,069,21235284,,,,,,,,,,,900,638,262,,,,,,,,,,,,,,,,,900,900,21232974,poststelle@helmholtzschule.frankfurt.schulverwaltung.hessen.de,Öffentlich,900,,Weiterführende Schule,Frankfurt am Main,Hessen,Hessisches Statistisches Landesamt Verzeichnis 6,2026-03-30,50.116,8.70914
5109,412,000,1,,Schillerschule,60596,Frankfurt am Main,Morgensternstraße 3,069,21233058,,,,,,,,,,,1169,801,368,,,,,,,,,,,13,,,,,,1182,1182,21240563,poststelle@schillerschule.frankfurt.schulverwaltung.hessen.de,Öffentlich,1182,13.0,Weiterführende Schule,Frankfurt am Main,Hessen,Hessisches Statistisches Landesamt Verzeichnis 6,2026-03-30,50.1018,8.67766
5110,412,000,1,,Heinrich-von-Gagern-Gymnasium,60316,Frankfurt am Main,Bernhard-Grzimek-Allee 6 - 8,069,21235150,,,,,,,,,,,840,559,281,,,,,,,,,,,23,,,,,,863,863,21240537,poststelle@heinrich-von-gagern-gymnasium.frankfurt.schulverwaltung.hessen.de,Öffentlich,863,23.0,Gymnasium,Frankfurt am Main,Hessen,Hessisches Statistisches Landesamt Verzeichnis 6,2026-03-30,50.114,8.70149
5111,412,000,1,,Lessing-Gymnasium,60322,Frankfurt am Main,Fürstenbergerstraße 166,069,21235136,,,,,,,,,,,755,518,237,,,,,,,,,,,11,,,,,,766,766,21240568,poststelle@lessinggymnasium.frankfurt.schulverwaltung.hessen.de,Öffentlich,766,11.0,Gymnasium,Frankfurt am Main,Hessen,Hessisches Statistisches Landesamt Verzeichnis 6,2026-03-30,50.1249,8.67222
5112,412,000,1,,Freiherr-vom-Stein-Schule,60594,Frankfurt am Main,Schweizer Straße 87,069,21233841,,,,,,,,,,,1053,760,293,,,,,,,,,,,,,,,,,1053,1053,21231895,poststelle@freiherr-vom-stein-schule.frankfurt.schulverwaltung.hessen.de,Öffentlich,1053,,Weiterführende Schule,Frankfurt am Main,Hessen,Hessisches Statistisches Landesamt Verzeichnis 6,2026-03-30,50.0996,8.68418
5113,412,000,1,,Liebigschule,60488,Frankfurt am Main,Kollwitzstraße 3,069,21239479,,,,,,,,,,,1074,765,309,,,,,,,,,,,14,,,,,,1088,1088,21239480,poststelle@liebigschule.frankfurt.schulverwaltung.hessen.de,Öffentlich,1088,14.0,Gesamtschule,Frankfurt am Main,Hessen,Hessisches Statistisches Landesamt Verzeichnis 6,2026-03-30,50.135,8.60963
5114,412,000,1,,Leibnizschule,65929,Frankfurt am Main,Gebeschusstraße 22-24,069,21245505,,,,,,,,,,,918,918,,,,,,,,,,,,18,,,,,,936,936,21245779,poststelle@leibnizschule.frankfurt.schulverwaltung.hessen.de,Öffentlich,936,18.0,Weiterführende Schule,Frankfurt am Main,Hessen,Hessisches Statistisches Landesamt Verzeichnis 6,2026-03-30,50.1051,8.54184
5115,412,000,1,,Musterschule,60318,Frankfurt am Main,Oberweg 5-9,069,21235267,,,,,,,,,,,962,695,267,,,,,,,,,,,,,,,,,962,962,21240541,poststelle@musterschule.frankfurt.schulverwaltung.hessen.de,Öffentlich,962,,Weiterführende Schule,Frankfurt am Main,Hessen,Hessisches Statistisches Landesamt Verzeichnis 6,2026-03-30,50.1219,8.68522
5116,412,000,1,,Goethe-Gymnasium,60325,Frankfurt am Main,Friedrich-Ebert-Anlage 22,069,21233525,,,,,,,,,,,1234,865,369,,,,,,,,,,,,,,,,,1234,1234,21230717,poststelle@goethegymnasium.frankfurt.schulverwaltung.hessen.de,Öffentlich,1234,,Gymnasium,Frankfurt am Main,Hessen,Hessisches Statistisches Landesamt Verzeichnis 6,2026-03-30,50.1114,8.65527
5117,412,000,2,,Anna-Schmidt-Schule,60322,Frankfurt am Main,Gärtnerweg 29,069,9550050,,,373,,373,,,,,,1173,808,365,,,,,,,,,,,,,,,,,1546,1546,5962111,info@anna-schmidt-schule.de,Privat,1546,,Gesamtschule,Frankfurt am Main,Hessen,Hessisches Statistisches Landesamt Verzeichnis 6,2026-03-30,50.1187,8.67493
5118,412,000,2,,Freie Waldorfschule Frankfurt,60433,Frankfurt am Main,Friedlebenstraße 52,069,953060,,19,230,,230,,,,,,553,403,150,,,,,,,,,,,,,,,,,802,783,95294225,mail@waldorfschule-frankfurt.de,Privat,783,,Gesamtschule,Frankfurt am Main,Hessen,Hessisches Statistisches Landesamt Verzeichnis 6,2026-03-30,50.1477,8.67464
5119,412,000,2,,Private Kant-Schule,60322,Frankfurt am Main,Hammanstraße 9,069,9551290,,,145,,145,,,,,,97,82,15,,,,,,,,,,,,,,,,,242,242,95512920,info@kant-schule.de,Privat,242,,Gesamtschule,Frankfurt am Main,Hessen,Hessisches Statistisches Landesamt Verzeichnis 6,2026-03-30,50.1249,8.67698
5213,412,000,1,,Max-Beckmann-Schule,60487,Frankfurt am Main,Sophienstraße 70,069,21236964,,,,,,,,,,,552,,552,,,,,,,,,,,,,,,,,552,552,21239724,poststelle@max-beckmann-schule.frankfurt.schulverwaltung.hessen.de,Öffentlich,552,,Weiterführende Schule,Frankfurt am Main,Hessen,Hessisches Statistisches Landesamt Verzeichnis 6,2026-03-30,50.121,8.65306
5218,412,000,1,,Friedrich-Dessauer-Gymnasium,65929,Frankfurt am Main,Michael-Stumpf-Straße 2,069,21245607,,,,,,,,,,,714,,714,,,,,,,,,,,,,,,,,714,714,21245793,poststelle@friedrich-dessauer-gymnasium.frankfurt.schulverwaltung.hessen.de,Öffentlich,714,,Gymnasium,Frankfurt am Main,Hessen,Hessisches Statistisches Landesamt Verzeichnis 6,2026-03-30,50.1047,8.54299
5502,412,000,1,,Abendgymnasium Frankfurt am Main,60314,Frankfurt am Main,Martin-Elsäßer-Weg 6,069,21240090,,,,,,,,,,,,,,,,,,,,,,,,,117,,,117,,117,117,21239929,poststelle@abendgymnasium.frankfurt.schulverwaltung.hessen.de,Öffentlich,117,,Gymnasium,Frankfurt am Main,Hessen,Hessisches Statistisches Landesamt Verzeichnis 6,2026-03-30,50.1257,8.67557
5507,412,000,1,,Hessenkolleg Frankfurt,60486,Frankfurt am Main,Biegweg 41,069,703090,%,,,,,,,,,,,,,,,,,,,,,,,,98,,,,98,98,98,70767020,poststelle@ko.frankfurt.schulverwaltung.hessen.de,Öffentlich,98,,Gymnasium,Frankfurt am Main,Hessen,Hessisches Statistisches Landesamt Verzeichnis 6,2026-03-30,50.1182985,8.6195322
5512,412,000,1,,Abendhaupt- u. Abendrealschule Frankfurt,60314,Frankfurt am Main,Hanauer Landstraße 26,069,21230413,,,,,,,,,,,,,,,,,,,,,,,,,361,70,291,,,361,361,21240546,poststelle@abendhaupt-und-abendrealschule.frankfurt.schulverwaltung.hessen.de,Öffentlich,361,,Realschule,Frankfurt am Main,Hessen,Hessisches Statistisches Landesamt Verzeichnis 6,2026-03-30,50.1119637,8.6981928
6001,412,000,1,,Ernst-Reuter-Schule I,60439,Frankfurt am Main,Hammarskjöldring 17 A,069,21232000,,,,,,,,,,,478,,478,,,,,,,,,,,,,,,,,478,478,21232001,poststelle@ernst-reuter-schule1.frankfurt.schulverwaltung.hessen.de,Öffentlich,478,,Weiterführende Schule,Frankfurt am Main,Hessen,Hessisches Statistisches Landesamt Verzeichnis 6,2026-03-30,50.1626,8.629
6002,412,000,1,2,Georg-Büchner-Schule,60486,Frankfurt am Main,Pfingstbrunnenstraße 15 - 17,069,21234130,,,238,,238,,,,,837,,,,,,,,,,,,,,49,,,,,,1124,1124,21239006,poststelle@georg-buechner-schule.frankfurt.schulverwaltung.hessen.de,Öffentlich,1124,49.0,Grundschule,Frankfurt am Main,Hessen,Hessisches Statistisches Landesamt Verzeichnis 6,2026-03-30,50.1161,8.63769
6055,412,000,1,1,Schule am Ried,60388,Frankfurt am Main,Barbarossastraße 65,069,21241256,,,,,,,87,,457,,859,619,240,,,,,,,,,,,26,,,,,,1429,1429,21247538,poststelle@schule-am-ried.frankfurt.schulverwaltung.hessen.de,Öffentlich,1429,26.0,Weiterführende Schule,Frankfurt am Main,Hessen,Hessisches Statistisches Landesamt Verzeichnis 6,2026-03-30,50.1473,8.76252
6059,412,000,1,2,Ernst-Reuter-Schule II,60439,Frankfurt am Main,Hammarskjöldring 17 a,069,21235531,,,,,,,,,,1153,,,,,,,,,,,,,,30,,,,,,1183,1183,21232083,poststelle@ernst-reuter-schule2.frankfurt.schulverwaltung.hessen.de,Öffentlich,1183,30.0,Weiterführende Schule,Frankfurt am Main,Hessen,Hessisches Statistisches Landesamt Verzeichnis 6,2026-03-30,50.1626,8.629
6090,412,000,1,2,IGS Eschersheim,60433,Frankfurt am Main,Zehnmorgenstraße 20,069,21238751,,,136,,136,,,,,386,,,,,,,,,,,,,,54,,,,,,576,576,21232343,poststelle@igs-eschersheim.frankfurt.schulverwaltung.hessen.de,Öffentlich,576,54.0,Grundschule,Frankfurt am Main,Hessen,Hessisches Statistisches Landesamt Verzeichnis 6,2026-03-30,50.1605,8.65958
6091,412,000,1,1,Otto-Hahn-Schule,60437,Frankfurt am Main,Urseler Weg 27,069,21244200,,,,,,172,121,,254,,833,536,297,,,,,,,,,,,24,,,,,,1404,1404,21244222,poststelle@otto-hahn-schule.frankfurt.schulverwaltung.hessen.de,Öffentlich,1404,24.0,Weiterführende Schule,Frankfurt am Main,Hessen,Hessisches Statistisches Landesamt Verzeichnis 6,2026-03-30,50.2019,8.66776
6097,412,000,1,2,Friedrich-Ebert-Schule,60389,Frankfurt am Main,Arolser Straße 11,069,21247390,,,,,,,,,,501,,,,,,,,,,,,,,12,,,,,,513,513,21247711,poststelle@friedrich-ebert-schule.frankfurt.schulverwaltung.hessen.de,Öffentlich,513,12.0,Weiterführende Schule,Frankfurt am Main,Hessen,Hessisches Statistisches Landesamt Verzeichnis 6,2026-03-30,50.1412257,8.7162032
6107,412,000,1,2,Carl-von-Weinberg-Schule,60529,Frankfurt am Main,Zur Waldau 21,069,21232810,,,,,,,,,,831,216,,216,,,,,,,,,,,53,,,,,,1100,1100,21232806,poststelle@carl-von-weinberg-schule.frankfurt.schulverwaltung.hessen.de,Öffentlich,1100,53.0,Weiterführende Schule,Frankfurt am Main,Hessen,Hessisches Statistisches Landesamt Verzeichnis 6,2026-03-30,50.08,8.6121
6108,412,000,1,2,Georg-August-Zinn-Schule,65933,Frankfurt am Main,Am Mühlgewann 1,069,21236100,,,,,,,,,,572,,,,,,,,,,,,,,50,,,,,,622,622,21240256,poststelle@georg-august-zinn-schule.frankfurt.schulverwaltung.hessen.de,Öffentlich,622,50.0,Weiterführende Schule,Frankfurt am Main,Hessen,Hessisches Statistisches Landesamt Verzeichnis 6,2026-03-30,50.1143,8.64658
6109,412,000,1,2,Schule am Mainbogen,60386,Frankfurt am Main,Fachfeldstraße 34,069,21248994,,,,,,,,,,466,,,,,,,,,,,,,,46,,,,,,512,512,21249110,poststelle@sam.frankfurt.schulverwaltung.hessen.de,Öffentlich,512,46.0,Weiterführende Schule,Frankfurt am Main,Hessen,Hessisches Statistisches Landesamt Verzeichnis 6,2026-03-30,50.1219,8.75743
6121,412,000,1,2,Paul-Hindemith-Schule,60326,Frankfurt am Main,Schwalbacher Straße 71 - 77,069,21235239,,,,,,,,,,634,,,,,,,,,,,,,,40,,,,,,674,674,21240054,poststelle@paul-hindemith-schule.frankfurt.schulverwaltung.hessen.de,Öffentlich,674,40.0,Weiterführende Schule,Frankfurt am Main,Hessen,Hessisches Statistisches Landesamt Verzeichnis 6,2026-03-30,50.1053,8.63494
6135,412,000,1,2,IGS-Nordend,60389,Frankfurt am Main,Hartmann-Ibach-Straße 54 - 58,069,21230855,,,,,,,,,,592,,,,,,,,,,,,,,,,,,,,592,592,21234283,poststelle@igs-nordend.frankfurt.schulverwaltung.hessen.de,Öffentlich,592,,Gesamtschule,Frankfurt am Main,Hessen,Hessisches Statistisches Landesamt Verzeichnis 6,2026-03-30,50.1283,8.70252
6266,412,000,1,,Wilhelm-Merton-Schule,60385,Frankfurt am Main,Andreaestraße 24,069,21246810,,,,,,,,,,,,,,,,,,,,,,,,,95,27,68,,,95,95,21246809,poststelle@wilhelm-merton-schule.frankfurt.schulverwaltung.hessen.de,Öffentlich,95,,Weiterführende Schule,Frankfurt am Main,Hessen,Hessisches Statistisches Landesamt Verzeichnis 6,2026-03-30,50.142,8.66371
6365,412,000,2,,Freie Schule für Erwachsene Frankfurt,60437,Frankfurt am Main,Ben-Gurion-Ring 164,069,269235941,,,,,,,,,,,,,,,,,,,,,,,,,83,29,54,,,83,83,269235911,freieschule@lehrerkooperative.de,Privat,83,,Weiterführende Schule,Frankfurt am Main,Hessen,Hessisches Statistisches Landesamt Verzeichnis 6,2026-03-30,50.1866901,8.6588001
