schulnummer,Schulform,Schulbezeichnung_1,Schulbezeichnung_2,Schulbezeichnung_3,kurzbezeichnung,Bezirksregierung,plz,ort,strasse,Telefonvorwahl,Telefon,Faxvorwahl,Fax,email,website,Rechtsform,Traegernummer,gemeindeschluessel,Schulbetriebsschluessel,Schulbetriebsdatum,EPSG,UTMRechtswert,UTMHochwert,Unnamed: 24,latitude,longitude,schulform_name,traegerschaft,bezirksregierung_name,schulname,telefon,stadt,data_source,data_retrieved,bundesland,sozialindexstufe
100010,20,Gymnasium Claudia Agrippina Privat,schule als priv.Ersatzsch. d. Sek.I u.II,d. CAPS Privatschu gGmbH,"Köln, Gym Gymnasium Claudia Agrippina",3,50933,Köln,Stolberger Str. 112,0221,37996433,0221,37990671,100010@schule.nrw.de,http://www.claudia-agrippina-privatschule.de,2,83150,05315000,1,01.08.2016,EPSG:25832,352258,5645500,,50.942172,6.897017,Gymnasium,Privat,Köln,Gymnasium Claudia Agrippina Privat schule als priv.Ersatzsch. d. Sek.I u.II d. CAPS Privatschu gGmbH,022137996433,Köln,Schulministerium NRW Open Data,2026-02-17,Nordrhein-Westfalen,
100015,20,Städt. Wim-Wenders-Gymnasium,Sekundarstufe I und II,,"Düsseldorf, Gym Wim-Wenders",1,40227,Düsseldorf,Schmiedestr. 25,0211,8924260,0211,8929604,100015@schule.nrw.de,https://ww-gym.de,1,10042,05111000,1,01.08.2017,EPSG:25832,346741,5675559,,51.210836,6.805804,Gymnasium,Öffentlich,Düsseldorf,Städt. Wim-Wenders-Gymnasium Sekundarstufe I und II,02118924260,Düsseldorf,Schulministerium NRW Open Data,2026-02-17,Nordrhein-Westfalen,4.0
100020,02,Städt. Kath. Grundschule,Kartause-Hain-Schule,- Primarstufe -,"Düsseldorf, KG Kartause-Hain-Schule",1,40468,Düsseldorf,Unterrather Str. 76,0211,4791163,0211,4299019,100020@schule.nrw.de,http://www.kartause-hain-schule.de,1,10042,05111000,1,01.08.1973,EPSG:25832,345372,5682741,,51.275,6.783118,Grundschule,Öffentlich,Düsseldorf,Städt. Kath. Grundschule Kartause-Hain-Schule - Primarstufe -,02114791163,Düsseldorf,Schulministerium NRW Open Data,2026-02-17,Nordrhein-Westfalen,5.0
100036,15,Gesamtschule Helios,,,"Köln, GE Gesamtschule Helios",3,50823,Köln,Overbeckstr. 71-73,0221,35589980,0221,500558519,100036@schule.nrw.de,https://heliosschule.de/,1,10182,05315000,1,01.08.2018,EPSG:25832,354462,5646933,,50.95561,6.927795,Gesamtschule,Öffentlich,Köln,Gesamtschule Helios,022135589980,Köln,Schulministerium NRW Open Data,2026-02-17,Nordrhein-Westfalen,3.0
100040,20,Gymnasium Neue Sandkaul,,,"Köln, Gym Neue Sandkaul",3,50859,Köln,Neue Sandkaul 29,0221,22135320,,,100040@schule.nrw.de,https://gymnasium-neue-sandkaul.de/,1,10182,05315000,1,01.08.2018,EPSG:25832,348232,5647911,,50.962792,6.838749,Gymnasium,Öffentlich,Köln,Gymnasium Neue Sandkaul,022122135320,Köln,Schulministerium NRW Open Data,2026-02-17,Nordrhein-Westfalen,2.0
100041,15,Gesamtschule Wasseramselweg,der Stadt Köln,- Sekundarstufen I und II -,"Köln, GE Wasseramselweg",3,50829,Köln,Wasseramselweg 2,0221,22135380,0221,22135378,100041@schule.nrw.de,http://www.gesamtschule-wasseramselweg.de,1,10182,05315000,1,01.08.2018,EPSG:25832,351003,5646460,,50.950476,6.878774,Gesamtschule,Öffentlich,Köln,Gesamtschule Wasseramselweg der Stadt Köln - Sekundarstufen I und II -,022122135380,Köln,Schulministerium NRW Open Data,2026-02-17,Nordrhein-Westfalen,4.0
100061,02,Städtische Gemeinschaftsgrundschule,Steinkaul 27,-Primarstufe-,"Düsseldorf, GG Steinkaul",1,40589,Düsseldorf,Steinkaul 27,0211,8925660,0211,8925665,100061@schule.nrw.de,https://www.ggs-steinkaul.de/,1,10042,05111000,1,01.08.2019,EPSG:25832,346650,5671005,,51.169891,6.806447,Grundschule,Öffentlich,Düsseldorf,Städtische Gemeinschaftsgrundschule Steinkaul 27 -Primarstufe-,02118925660,Düsseldorf,Schulministerium NRW Open Data,2026-02-17,Nordrhein-Westfalen,1.0
100067,02,Städtische Katholische Grundschule,Niederkassel,- Primarstufe -,"Düsseldorf, KG Niederkassel",1,40547,Düsseldorf,Niederkasseler Str. 36,0211,8924500,0211,8924624,100067@schule.nrw.de,http://www.grundschuleniederkassel.de,1,10042,05111000,1,01.08.1973,EPSG:25832,343203,5678621,,51.237389,6.753852,Grundschule,Öffentlich,Düsseldorf,Städtische Katholische Grundschule Niederkassel - Primarstufe -,02118924500,Düsseldorf,Schulministerium NRW Open Data,2026-02-17,Nordrhein-Westfalen,3.0
100068,15,Gesamtschule Berrenrather Straße,der Stadt Köln,- Sekundarstufen I und II -,"Köln, GE Berrenrather Straße",3,50937,Köln,Berrenrather Str. 488,0221,28550626,0221,4302383,100068@schule.nrw.de,https://www.ge-lindenthal.de,1,10182,05315000,1,01.08.2019,EPSG:25832,353288,5641605,,50.907432,6.913235,Gesamtschule,Öffentlich,Köln,Gesamtschule Berrenrather Straße der Stadt Köln - Sekundarstufen I und II -,022128550626,Köln,Schulministerium NRW Open Data,2026-02-17,Nordrhein-Westfalen,4.0
100071,15,Gesamtschule Dellbrücker Mauspfad,- Sekundarstufe I und II -,,"Köln, GE Dellbrücker Mauspfad",3,51069,Köln,Dellbrücker Mauspfad 198-200,0221,938500448,0221,938500495,100071@schule.nrw.de,https://ge-dellbrueck.de/,1,10182,05315000,1,01.08.2019,EPSG:25832,364375,5648276,,50.970098,7.068349,Gesamtschule,Öffentlich,Köln,Gesamtschule Dellbrücker Mauspfad - Sekundarstufe I und II -,0221938500448,Köln,Schulministerium NRW Open Data,2026-02-17,Nordrhein-Westfalen,4.0
100078,02,LOGOS-Grundschule,Russisch-Orthodoxe Bekenntnisgrundschule,,"Köln, GG LOGOS",3,51065,Köln,Arnsberger Str. 11,0221,16908487,,,100078@schule.nrw.de,http://www.logos-grundschule.de,2,10004,05315000,1,01.08.2019,EPSG:25832,360561,5646621,,50.954314,7.014696,Grundschule,Privat,Köln,LOGOS-Grundschule Russisch-Orthodoxe Bekenntnisgrundschule,022116908487,Köln,Schulministerium NRW Open Data,2026-02-17,Nordrhein-Westfalen,
100079,02,Paulus Schule,Städt. Kath. Grundschule,- Primarstufe -,"Düsseldorf, KG Paulus Schule",1,40237,Düsseldorf,Paulusplatz 1,0211,667608,0211,6799796,100079@schule.nrw.de,https://paulusschule-duesseldorf.de/,1,10042,05111000,1,01.08.1973,EPSG:25832,346730,5678352,,51.23593,6.804452,Grundschule,Öffentlich,Düsseldorf,Paulus Schule Städt. Kath. Grundschule - Primarstufe -,0211667608,Düsseldorf,Schulministerium NRW Open Data,2026-02-17,Nordrhein-Westfalen,3.0
100092,02,Städt. Kath. Grundschule,- Primarstufe -,,"Düsseldorf, KG Rather Kreuzweg",1,40472,Düsseldorf,Rather Kreuzweg 21,0211,8992882,0211,8929436,100092@schule.nrw.de,https://www.kgs-rather-kreuzweg.de/,1,10042,05111000,1,01.08.1973,EPSG:25832,347071,5681331,,51.262789,6.80806,Grundschule,Öffentlich,Düsseldorf,Städt. Kath. Grundschule - Primarstufe -,02118992882,Düsseldorf,Schulministerium NRW Open Data,2026-02-17,Nordrhein-Westfalen,9.0
100105,02,Erzbischöfliche Grundschule am,"Bildungscampus Köln-Kalk, staatl.gen.",priv.Ersatzsch.d.Erzbist.Köln,"Köln, KG am Bildungscampus",3,51103,Köln,Christian-Sünner-Str. 5,0221,22210910,,,100105@schule.nrw.de,https://bildungscampus-kalk.de/,2,71110,05315000,1,01.08.2020,EPSG:25832,360142,5644488,,50.935043,7.009553,Grundschule,Privat,Köln,"Erzbischöfliche Grundschule am Bildungscampus Köln-Kalk, staatl.gen. priv.Ersatzsch.d.Erzbist.Köln",022122210910,Köln,Schulministerium NRW Open Data,2026-02-17,Nordrhein-Westfalen,
100109,02,Marienschule,Städt. Kath. Grundschule,- Primarstufe -,"Düsseldorf, KG Marienschule",1,40591,Düsseldorf,Rheindorfer Weg 20,0211,8924360,0211,8924362,100109@schule.nrw.de,http://www.kgs-marienschule-duesseldorf.de,1,10042,05111000,1,01.08.1973,EPSG:25832,347268,5673248,,51.190212,6.814326,Grundschule,Öffentlich,Düsseldorf,Marienschule Städt. Kath. Grundschule - Primarstufe -,02118924360,Düsseldorf,Schulministerium NRW Open Data,2026-02-17,Nordrhein-Westfalen,2.0
100113,02,Gemeinschaftsgrundschule Gaedestrasse,in Köln-Marienburg,,"Köln, GG Gaedestrasse",3,50968,Köln,Gaedestr. 31,0221,5708050,0221,57080520,100113@schule.nrw.de,http://www.ggs-gaedestrasse.de,1,10182,05315000,1,01.08.2023,EPSG:25832,356628,5640545,,50.898745,6.961126,Grundschule,Öffentlich,Köln,Gemeinschaftsgrundschule Gaedestrasse in Köln-Marienburg,02215708050,Köln,Schulministerium NRW Open Data,2026-02-17,Nordrhein-Westfalen,4.0
100122,02,Hermann Gmeiner Schule,Städt. Kath. Grundschule,- Primarstufe -,"Düsseldorf, KG Hermann Gmeiner Schule",1,40599,Düsseldorf,Schillstr. 7,0211,8926160,0211,8926155,100122@schule.nrw.de,http://www.kgs-hermann-gmeiner.de,1,10042,05111000,1,01.08.1973,EPSG:25832,351479,5671797,,51.178283,6.875143,Grundschule,Öffentlich,Düsseldorf,Hermann Gmeiner Schule Städt. Kath. Grundschule - Primarstufe -,02118926160,Düsseldorf,Schulministerium NRW Open Data,2026-02-17,Nordrhein-Westfalen,7.0
100145,20,Städt. Gymnasium Zusestraße,,,"Köln, Gym Zusestraße",3,50859,Köln,Zusestr. 47,0221,22134810,,,100145@schule.nrw.de,https://gymnasium-zusestrasse.de/,1,10182,05315000,1,01.08.2022,EPSG:25832,348169,5646617,,50.951147,6.838392,Gymnasium,Öffentlich,Köln,Städt. Gymnasium Zusestraße,022122134810,Köln,Schulministerium NRW Open Data,2026-02-17,Nordrhein-Westfalen,2.0
100147,20,Stadt Köln,Gymnasium Müngersdorf,Sekundarstufen I und II,"Köln, Gym Müngersdorf",3,50933,Köln,Aachener Str. 744 - 750,0221,22136620,0221,22136643,100147@schule.nrw.de,https://www.gymnasium-aachener-str.de,1,10182,05315000,1,01.08.2022,,350995,5645088,,50.938144,6.879221,Gymnasium,Öffentlich,Köln,Stadt Köln Gymnasium Müngersdorf Sekundarstufen I und II,022122136620,Köln,Schulministerium NRW Open Data,2026-02-17,Nordrhein-Westfalen,2.0
100158,02,Städtische Katholische Grundschule,Primarstufe mit Montessorizweig,,"Düsseldorf, KG Josef-Kleesattel-Str.",1,40595,Düsseldorf,Josef-Kleesattel-Str. 13,0211,7393600,0211,7393601,100158@schule.nrw.de,http://schulen.duesseldorf.de/gs-josefkleesattelstr,1,10042,05111000,1,01.08.1973,EPSG:25832,352341,5668096,,51.145248,6.888985,Grundschule,Öffentlich,Düsseldorf,Städtische Katholische Grundschule Primarstufe mit Montessorizweig,02117393600,Düsseldorf,Schulministerium NRW Open Data,2026-02-17,Nordrhein-Westfalen,6.0
100159,02,Gem. Grundschule Alfons-Nowak-Straße,,,"Köln, GG Alfons-Nowak-Straße",3,50858,Köln,Alfons-Nowak-Str. 2,0221,7161250,0221,71612520,100159@schule.nrw.de,https://www.alfons-nowak-strasse.de,1,10182,05315000,1,01.08.2023,,349599,5644243,,50.930188,6.859716,Grundschule,Öffentlich,Köln,Gem. Grundschule Alfons-Nowak-Straße,02217161250,Köln,Schulministerium NRW Open Data,2026-02-17,Nordrhein-Westfalen,3.0
100160,02,Grundschule Kaiserswerth,Städt. Gem. Grundschule Fliednerstraße,- Primarstufe -,"Düsseldorf, GG Kaiserswerth",1,40489,Düsseldorf,Fliednerstr. 32,0211,8923642,0211,8923645,100160@schule.nrw.de,http://www.grundschule-kaiserswerth.de,1,10042,05111000,1,01.08.1972,EPSG:25832,342329,5685867,,51.302254,6.738147,Grundschule,Öffentlich,Düsseldorf,Grundschule Kaiserswerth Städt. Gem. Grundschule Fliednerstraße - Primarstufe -,02118923642,Düsseldorf,Schulministerium NRW Open Data,2026-02-17,Nordrhein-Westfalen,3.0
100161,02,"Offene Grund-Schule Köln, Staatl.gen.",private Ersatzschule als inklusive,Gem.Grundschule d. OSK gGmbH,"Köln, GG Offene-Grundschule Köln",3,50999,Köln,Sürther Str. 199,0221,337703101,,,100161@schule.nrw.de,https://www.offene-schule-koeln.de,2,82508,05315000,1,01.08.2022,,359708,5637441,,50.871605,7.006089,Grundschule,Privat,Köln,"Offene Grund-Schule Köln, Staatl.gen. private Ersatzschule als inklusive Gem.Grundschule d. OSK gGmbH",0221337703101,Köln,Schulministerium NRW Open Data,2026-02-17,Nordrhein-Westfalen,
100168,02,Freie Naturschulen Köln - Grundschule,Staatl.gen.priv. Ersatzs. a. inklusive,Gem.Grundschule d. Vivimos gUG,"Köln, GG Freie Naturschulen",3,50996,Köln,An der Wachsfabrik 25,02236,8846800,,,100168@schule.nrw.de,https://www.freie-naturschulen-koeln.com/,2,10041,05315000,1,10.08.2022,,359211,5637187,,50.869201,6.999128,Grundschule,Privat,Köln,Freie Naturschulen Köln - Grundschule Staatl.gen.priv. Ersatzs. a. inklusive Gem.Grundschule d. Vivimos gUG,022368846800,Köln,Schulministerium NRW Open Data,2026-02-17,Nordrhein-Westfalen,
100169,15,Freie Naturschulen Köln - Gesamtschule,Staatl. gen. priv. Ersatzschule als,Gesamtschule d. Vivimos gUG i. Aufbau,"Köln, GE Freie Naturschulen",3,50996,Köln,An der Wachsfabrik 25,02236,8846800,,,100169@schule.nrw.de,http://www.freie-naturschulen-koeln.com/Unsere-Schulen/Gesamtschule/,2,10041,05315000,1,10.08.2022,,359211,5637187,,50.869201,6.999128,Gesamtschule,Privat,Köln,Freie Naturschulen Köln - Gesamtschule Staatl. gen. priv. Ersatzschule als Gesamtschule d. Vivimos gUG i. Aufbau,022368846800,Köln,Schulministerium NRW Open Data,2026-02-17,Nordrhein-Westfalen,
100171,02,Städt. Kath. Grundschule,- Primarstufe -,,"Düsseldorf, KG Unter den Eichen",1,40625,Düsseldorf,Unter den Eichen 26,0211,8928292,0211,8929562,100171@schule.nrw.de,http://www.kgs-unterdeneichen.de,1,10042,05111000,1,01.08.1973,EPSG:25832,350425,5677883,,51.232696,6.857538,Grundschule,Öffentlich,Düsseldorf,Städt. Kath. Grundschule - Primarstufe -,02118928292,Düsseldorf,Schulministerium NRW Open Data,2026-02-17,Nordrhein-Westfalen,3.0
100180,08,Schule am Engelshof,Förderschule mit dem,Förderschwerpunkt Lernen,"Köln, FÖ LE Am Engelshof",3,51149,Köln,Berliner Str. 36,02203,8992920,,,100180@schule.nrw.de,,1,10182,05315000,1,01.08.2023,,360984,5640553,,50.899882,7.023029,Förderschule,Öffentlich,Köln,Schule am Engelshof Förderschule mit dem Förderschwerpunkt Lernen,022038992920,Köln,Schulministerium NRW Open Data,2026-02-17,Nordrhein-Westfalen,
100181,30,FRÖBEL-Fachschule für Sozialpädagogik,,,"Köln, BK FRÖBEL-Fachschule",3,50677,Köln,Salierring 47 - 53,0152,59571390,,,100181@schule.nrw.de,https://froebel-akademie.de/koeln,2,10046,05315000,1,07.08.2023,,355422,5643852,,50.928163,6.942677,Berufskolleg,Privat,Köln,FRÖBEL-Fachschule für Sozialpädagogik,015259571390,Köln,Schulministerium NRW Open Data,2026-02-17,Nordrhein-Westfalen,
100183,02,Christophorus-Schule,Städt. Kath. Grundschule,- Primarstufe -,"Düsseldorf, KG Christophorus",1,40591,Düsseldorf,Werstener Friedhofstr. 10,0211,8926170,0211,8926175,100183@schule.nrw.de,https://www.christophorus-grundschule.de/,1,10042,05111000,1,01.08.1973,EPSG:25832,348182,5672765,,51.186115,6.8276,Grundschule,Öffentlich,Düsseldorf,Christophorus-Schule Städt. Kath. Grundschule - Primarstufe -,02118926170,Düsseldorf,Schulministerium NRW Open Data,2026-02-17,Nordrhein-Westfalen,3.0
100185,15,Élise Freinet Gesamtschule,Schule der Sekundarstufe I + II,,"Düsseldorf, GE Élise Freinet",1,40549,Düsseldorf,Aldekerkstr. 23,0211,89924994,,,100185@schule.nrw.de,https://www.elise-freinet-gesamtschule.de,1,10042,05111000,1,01.08.2024,,339896,5678226,,51.232921,6.706696,Gesamtschule,Öffentlich,Düsseldorf,Élise Freinet Gesamtschule Schule der Sekundarstufe I + II,021189924994,Düsseldorf,Schulministerium NRW Open Data,2026-02-17,Nordrhein-Westfalen,5.0
100186,10,Städtische Realschule Borbecker Straße,,,"Düsseldorf, RS Borbecker Straße",1,40472,Düsseldorf,Borbecker Str. 25,0211,8993022,,,100186@schule.nrw.de,https://www.borbecker-x.de/,1,10042,05111000,1,01.08.2024,,346030,5682418,,51.272276,6.792683,Realschule,Öffentlich,Düsseldorf,Städtische Realschule Borbecker Straße,02118993022,Düsseldorf,Schulministerium NRW Open Data,2026-02-17,Nordrhein-Westfalen,6.0
100187,20,Städt. Gymnasium Bernburger Straße,,,"Düsseldorf, Gym Bernburger Straße",1,40229,Düsseldorf,Bernburger Str. 44,0211,8928258,,,100187@schule.nrw.de,https://gy-bernburger-str.eschool.de/,1,10042,05111000,1,01.08.2024,,348822,5674329,,51.200338,6.836093,Gymnasium,Öffentlich,Düsseldorf,Städt. Gymnasium Bernburger Straße,02118928258,Düsseldorf,Schulministerium NRW Open Data,2026-02-17,Nordrhein-Westfalen,3.0
100205,20,Gymnasium Nippes,im Toni-Steingass-Park,,"Köln, Gym Nippes",3,50733,Köln,Henner-Berzau-Weg 3,0221,22136490,,,100205@schule.nrw.de,https://www.gymnasium-steingasspark.de/,1,10182,05315000,1,01.08.2024,,356546,5648550,,50.970664,6.956809,Gymnasium,Öffentlich,Köln,Gymnasium Nippes im Toni-Steingass-Park,022122136490,Köln,Schulministerium NRW Open Data,2026-02-17,Nordrhein-Westfalen,5.0
100206,20,Gymnasium Rondorf,,,"Köln, Gym Rondorf",3,50999,Köln,Eygelshovener Str.,0221,22136480,,,100206@schule.nrw.de,https://www.gymnasium-rondorf.de/,1,10182,05315000,1,01.08.2024,,359855,5638066,,50.877257,7.007937,Gymnasium,Öffentlich,Köln,Gymnasium Rondorf,022122136480,Köln,Schulministerium NRW Open Data,2026-02-17,Nordrhein-Westfalen,3.0
100208,15,Sieben Brücken Schule (Gesamtschule),Staatl. genehmigte Ersatzschule i.Aufbau,d. Bildungscampus Siebenbrücken gGmbH,"Köln, GE Sieben Brücken Schule",3,50859,Köln,Ottostr. 1,02234,93748710,,,100208@schule.nrw.de,https://www.7bruecken.com/,2,10048,05315000,1,23.10.2023,,348261,5646230,,50.947693,6.839862,Gesamtschule,Privat,Köln,Sieben Brücken Schule (Gesamtschule) Staatl. genehmigte Ersatzschule i.Aufbau d. Bildungscampus Siebenbrücken gGmbH,0223493748710,Köln,Schulministerium NRW Open Data,2026-02-17,Nordrhein-Westfalen,
100210,15,Gesamtschule Am Wassermann,,,"Köln, GE Am Wassermann",3,50829,Köln,Am Wassermann 40,0221,22136470,,,100210@schule.nrw.de,https://www.amwassermann.de/,1,10182,05315000,1,01.08.2024,,350877,5646322,,50.949203,6.877038,Gesamtschule,Öffentlich,Köln,Gesamtschule Am Wassermann,022122136470,Köln,Schulministerium NRW Open Data,2026-02-17,Nordrhein-Westfalen,5.0
100211,15,Gesamtschule Weidenpesch,,,"Köln, GE Weidenpesch",3,50739,Köln,Escher Str. 279,0221,22136460,0221,22136469,100211@schule.nrw.de,https://www.gesamtschule-weidenpesch.de,1,10182,05315000,1,01.08.2024,,354214,5648688,,50.971319,6.923563,Gesamtschule,Öffentlich,Köln,Gesamtschule Weidenpesch,022122136460,Köln,Schulministerium NRW Open Data,2026-02-17,Nordrhein-Westfalen,5.0
100212,15,Gesamtschule Ossendorf,,,"Köln, GE Ossendorf",3,50829,Köln,Am Wassermann 40,0221,22136450,,,100212@schule.nrw.de,https://gesamtschule-ossendorf.de,1,10182,05315000,1,01.08.2024,,350877,5646322,,50.949203,6.877038,Gesamtschule,Öffentlich,Köln,Gesamtschule Ossendorf,022122136450,Köln,Schulministerium NRW Open Data,2026-02-17,Nordrhein-Westfalen,6.0
100213,02,Henri-Dunant-Schule,Städt. Gem. Grundschule,- Primarstufe -,"Düsseldorf, GG Henri-Dunant-Schule",1,40591,Düsseldorf,Rheindorfer Weg 20,0211,8924350,0211,8924352,100213@schule.nrw.de,http://www.gs-rheindorferweg.schulen.duesseldorf.de/,1,10042,05111000,1,01.08.1973,EPSG:25832,347268,5673248,,51.190212,6.814326,Grundschule,Öffentlich,Düsseldorf,Henri-Dunant-Schule Städt. Gem. Grundschule - Primarstufe -,02118924350,Düsseldorf,Schulministerium NRW Open Data,2026-02-17,Nordrhein-Westfalen,2.0
100218,02,Grundschule Friedrich-Karl-Straße,,,"Köln, GG Friedrich-Karl-Straße",3,50737,Köln,Friedrich-Karl-Str. 64,0221,474410610,,,100218@schule.nrw.de,,1,10182,05315000,1,01.08.2025,,356442,5648917,,50.973937,6.955184,Grundschule,Öffentlich,Köln,Grundschule Friedrich-Karl-Straße,0221474410610,Köln,Schulministerium NRW Open Data,2026-02-17,Nordrhein-Westfalen,
100219,15,Erzbischöfliche Gesamtschule am,Bildungscampus Köln-Kalk,in Köln im Aufbau,"Köln, GE Erzbischöfliche Gesamtschule",3,51103,Köln,Christian-Sünner-Str. 5,0221,22211511,,,100219@schule.nrw.de,,2,71110,05315000,1,01.08.2024,,360142,5644488,,50.935043,7.009553,Gesamtschule,Privat,Köln,Erzbischöfliche Gesamtschule am Bildungscampus Köln-Kalk in Köln im Aufbau,022122211511,Köln,Schulministerium NRW Open Data,2026-02-17,Nordrhein-Westfalen,
100225,02,Städt. Gem. Grundschule,- Primarstufe -,,"Düsseldorf, GG Bingener Weg",1,40229,Düsseldorf,Bingener Weg 10,0211,8924378,0211,8924385,100225@schule.nrw.de,http://www.schulen.duesseldorf.de/gs-bingenerweg/,1,10042,05111000,1,01.08.1973,EPSG:25832,347676,5674424,,51.200888,6.819662,Grundschule,Öffentlich,Düsseldorf,Städt. Gem. Grundschule - Primarstufe -,02118924378,Düsseldorf,Schulministerium NRW Open Data,2026-02-17,Nordrhein-Westfalen,5.0
100231,20,Gymnasium Neustadt-Nord,,,"Köln, Gym Neustadt-Nord",3,50678,Köln,Ubierring 45,0221,47441050,,,100231@schule.nrw.de,https://www.gymnasium-neustadt-nord.de,1,10182,05315000,1,01.08.2025,,356957,5643168,,50.922399,6.964773,Gymnasium,Öffentlich,Köln,Gymnasium Neustadt-Nord,022147441050,Köln,Schulministerium NRW Open Data,2026-02-17,Nordrhein-Westfalen,
100233,20,Gymnasium Brügelmannstraße,,,"Köln, Gym Brügelmannstraße",3,50679,Köln,Brügelmannstr. 10,,,,,100233@schule.nrw.de,,1,10182,05315000,1,01.08.2025,,358410,5645454,,50.943302,6.984545,Gymnasium,Öffentlich,Köln,Gymnasium Brügelmannstraße,,Köln,Schulministerium NRW Open Data,2026-02-17,Nordrhein-Westfalen,
100235,15,Gesamtschule Kalk,,,"Köln, GE Kalk",3,50679,Köln,Brügelmannstr. 10,,,,,100235@schule.nrw.de,,1,10182,05315000,1,01.08.2025,,358410,5645454,,50.943302,6.984545,Gesamtschule,Öffentlich,Köln,Gesamtschule Kalk,,Köln,Schulministerium NRW Open Data,2026-02-17,Nordrhein-Westfalen,
100237,02,Städt. Gem. Grundschule,- Primarstufe -,,"Düsseldorf, GG Gumbertstr.",1,40229,Düsseldorf,Gumbertstr. 191,0211,9215317,0211,2202122,100237@schule.nrw.de,https://gumbertschule.de/,1,10042,05111000,1,01.07.1973,EPSG:25832,349380,5674304,,51.200261,6.844084,Grundschule,Öffentlich,Düsseldorf,Städt. Gem. Grundschule - Primarstufe -,02119215317,Düsseldorf,Schulministerium NRW Open Data,2026-02-17,Nordrhein-Westfalen,8.0
100250,02,St. -Peter-Schule,Städt. Kath. Grundschule,- Primarstufe -,"Düsseldorf, KG St. -Peter",1,40215,Düsseldorf,Jahnstr. 97,0211,8924741,0211,8924746,100250@schule.nrw.de,http://www.st-peter-schule-duesseldorf.de,1,10042,05111000,1,01.08.1973,EPSG:25832,344980,5675726,,51.211862,6.78054,Grundschule,Öffentlich,Düsseldorf,St. -Peter-Schule Städt. Kath. Grundschule - Primarstufe -,02118924741,Düsseldorf,Schulministerium NRW Open Data,2026-02-17,Nordrhein-Westfalen,6.0
100262,02,St. Michael Schule,Städt. Kath. Grundschule,- Primarstufe -,"Düsseldorf, KG St. Michael Schule",1,40231,Düsseldorf,Kempgensweg 65,0211,8921726,0211,8929434,100262@schule.nrw.de,https://www.gs-kempgensweg.de/,1,10042,05111000,1,01.08.1973,EPSG:25832,348307,5675212,,51.208136,6.828354,Grundschule,Öffentlich,Düsseldorf,St. Michael Schule Städt. Kath. Grundschule - Primarstufe -,02118921726,Düsseldorf,Schulministerium NRW Open Data,2026-02-17,Nordrhein-Westfalen,9.0
100274,02,Franz-Boehm-Schule,Städtische Katholische Grundschule,- Primarstufe -,"Düsseldorf, KG Franz-Boehm-Schule",1,40627,Düsseldorf,Kamper Weg 291,0211,8927910,0211,8927915,100274@schule.nrw.de,http://www.grundschule-kamper-weg.de,1,10042,05111000,1,01.08.1973,EPSG:25832,350712,5676059,,51.216381,6.862405,Grundschule,Öffentlich,Düsseldorf,Franz-Boehm-Schule Städtische Katholische Grundschule - Primarstufe -,02118927910,Düsseldorf,Schulministerium NRW Open Data,2026-02-17,Nordrhein-Westfalen,4.0
100286,02,St. Apollinaris Schule,Städtische Katholische Grundschule,- Primarstufe -,"Düsseldorf, KG St. Apollinaris Schule",1,40589,Düsseldorf,Itterstr. 16,0211,8924726,0211,8924736,100286@schule.nrw.de,http://www.apollinarisschule.de,1,10042,05111000,1,01.08.1973,EPSG:25832,348372,5671509,,51.174879,6.830847,Grundschule,Öffentlich,Düsseldorf,St. Apollinaris Schule Städtische Katholische Grundschule - Primarstufe -,02118924726,Düsseldorf,Schulministerium NRW Open Data,2026-02-17,Nordrhein-Westfalen,6.0
100298,02,Städtische Katholische Grundschule,Lohausen,- Primarstufe -,"Düsseldorf, KG Lohausen",1,40474,Düsseldorf,Im Grund 78,0211,8992798,0211,8929433,100298@schule.nrw.de,http://www.kleine-gelbe-schule.de,1,10042,05111000,1,01.08.1973,EPSG:25832,342189,5682912,,51.275664,6.737446,Grundschule,Öffentlich,Düsseldorf,Städtische Katholische Grundschule Lohausen - Primarstufe -,02118992798,Düsseldorf,Schulministerium NRW Open Data,2026-02-17,Nordrhein-Westfalen,4.0
100304,02,Städtische Katholische Grundschule,Mettmanner Straße,- Primarstufe -,"Düsseldorf, KG Mettmanner Straße",1,40233,Düsseldorf,Hubbelrather Str. 13,0211,8997971,0211,8929449,100304@schule.nrw.de,https://kgs-mettmannerstrasse.de/,1,10042,05111000,1,01.08.1973,EPSG:25832,346843,5676926,,51.223147,6.806679,Grundschule,Öffentlich,Düsseldorf,Städtische Katholische Grundschule Mettmanner Straße - Primarstufe -,02118997971,Düsseldorf,Schulministerium NRW Open Data,2026-02-17,Nordrhein-Westfalen,8.0
100316,02,Städt. Kath. Grundschule,- Primarstufe -,,"Düsseldorf, KG Höhenstr.",1,40227,Düsseldorf,Höhenstr. 5,0211,8928261,0211,8929182,100316@schule.nrw.de,http://www.kgs-hoehenstrasse.de/,1,10042,05111000,1,01.08.1973,EPSG:25832,346329,5676194,,51.216431,6.799638,Grundschule,Öffentlich,Düsseldorf,Städt. Kath. Grundschule - Primarstufe -,02118928261,Düsseldorf,Schulministerium NRW Open Data,2026-02-17,Nordrhein-Westfalen,8.0
100328,02,Gutenberg Schule,Städt. Gem. Grundschule,,"Düsseldorf, GG Gutenberg Schule",1,40235,Düsseldorf,Grafenberger Allee 384,0211,8924469,0211,8924467,100328@schule.nrw.de,http://www.gutenbergschule-duesseldorf.de,1,10042,05111000,1,01.08.1973,EPSG:25832,348138,5678851,,51.24079,6.824394,Grundschule,Öffentlich,Düsseldorf,Gutenberg Schule Städt. Gem. Grundschule,02118924469,Düsseldorf,Schulministerium NRW Open Data,2026-02-17,Nordrhein-Westfalen,3.0
100330,02,Städt. Gem. Grundschule Urdenbach,,,"Düsseldorf, GG Urdenbach",1,40593,Düsseldorf,Garather Str. 16,0211,8924450,0211,8924460,100330@schule.nrw.de,http://www.ggs-garather-strasse.de,1,10042,05111000,1,01.08.1973,EPSG:25832,351137,5668271,,51.146509,6.871713,Grundschule,Öffentlich,Düsseldorf,Städt. Gem. Grundschule Urdenbach,02118924450,Düsseldorf,Schulministerium NRW Open Data,2026-02-17,Nordrhein-Westfalen,2.0
100365,02,Volker-Rosin-Schule,Städt. Gemeinschaftsg. Arnstadter Weg,- Primarstufe -,"Düsseldorf, GG Volker-Rosin-Schule",1,40627,Düsseldorf,Arnstadter Weg 6-16,0211,8926420,0211,8926425,100365@schule.nrw.de,http://www.schulen.duesseldorf.de/gs-arnstadterweg,1,10042,05111000,1,01.08.1973,EPSG:25832,350024,5676168,,51.21718,6.852516,Grundschule,Öffentlich,Düsseldorf,Volker-Rosin-Schule Städt. Gemeinschaftsg. Arnstadter Weg - Primarstufe -,02118926420,Düsseldorf,Schulministerium NRW Open Data,2026-02-17,Nordrhein-Westfalen,4.0
100389,02,Städt. Gem. Grundschule,- Primarstufe -,,"Düsseldorf, GG Deutzer Str.",1,40229,Düsseldorf,Deutzer Str. 102,0211,8924793,0211,8924795,100389@schule.nrw.de,http://www.ggs-deutzerstrasse.de,1,10042,05111000,1,01.08.1973,EPSG:25832,350404,5673283,,51.191356,6.859156,Grundschule,Öffentlich,Düsseldorf,Städt. Gem. Grundschule - Primarstufe -,02118924793,Düsseldorf,Schulministerium NRW Open Data,2026-02-17,Nordrhein-Westfalen,6.0
100390,02,Städt. Gem. Grundschule,,,"Düsseldorf, GG Am Köhnen",1,40599,Düsseldorf,Am Köhnen 73,0211,8923970,0211,8923972,100390@schule.nrw.de,https://ggs-amkoehnen.de/,1,10042,05111000,1,01.08.1973,EPSG:25832,350878,5671978,,51.179753,6.866476,Grundschule,Öffentlich,Düsseldorf,Städt. Gem. Grundschule,02118923970,Düsseldorf,Schulministerium NRW Open Data,2026-02-17,Nordrhein-Westfalen,9.0
100420,02,Carl Sonnenschein Schule,Städt. Kath. Grundschule,- Primarstufe -,"Düsseldorf, KG Carl Sonnenschein Schule",1,40237,Düsseldorf,Graf-Recke-Str. 153,0211,8928340,0211,6790791,100420@schule.nrw.de,http://www.carlsonnenschein-schule.de,1,10042,05111000,1,01.08.1973,EPSG:25832,347654,5679193,,51.243734,6.81732,Grundschule,Öffentlich,Düsseldorf,Carl Sonnenschein Schule Städt. Kath. Grundschule - Primarstufe -,02118928340,Düsseldorf,Schulministerium NRW Open Data,2026-02-17,Nordrhein-Westfalen,3.0
100432,02,St.Bruno-Schule,Städt. Kath. Grundschule,- Primarstufe -,"Düsseldorf, KG St.Bruno-Schule",1,40468,Düsseldorf,An der Golzheimer Heide 120,0211,8923695,0211,8923698,100432@schule.nrw.de,http://stbruno-schule.de/,1,10042,05111000,1,01.08.1973,EPSG:25832,344375,5681981,,51.2679,6.769167,Grundschule,Öffentlich,Düsseldorf,St.Bruno-Schule Städt. Kath. Grundschule - Primarstufe -,02118923695,Düsseldorf,Schulministerium NRW Open Data,2026-02-17,Nordrhein-Westfalen,4.0
100444,02,Paul-Klee-Schule,Städt. Kath. Grundschule,- Primarstufe -,"Düsseldorf, KG Paul-Klee-Schule",1,40211,Düsseldorf,Gerresheimer Str. 34-36,0211,8923752,0211,8923756,100444@schule.nrw.de,http://www.grundschule-paul-klee.de,1,10042,05111000,1,01.08.1973,EPSG:25832,346021,5677476,,51.227868,6.794681,Grundschule,Öffentlich,Düsseldorf,Paul-Klee-Schule Städt. Kath. Grundschule - Primarstufe -,02118923752,Düsseldorf,Schulministerium NRW Open Data,2026-02-17,Nordrhein-Westfalen,9.0
100468,02,Städt. Kath. Grundschule,- Primarstufe -,,"Düsseldorf, KG Fuldaer Str.",1,40229,Düsseldorf,Fuldaer Str. 33,0211,8926950,0211,8926959,100468@schule.nrw.de,https://www.kgs-fuldaerstr.de/,1,10042,05111000,1,01.08.1973,EPSG:25832,348909,5673402,,51.192032,6.837727,Grundschule,Öffentlich,Düsseldorf,Städt. Kath. Grundschule - Primarstufe -,02118926950,Düsseldorf,Schulministerium NRW Open Data,2026-02-17,Nordrhein-Westfalen,2.0
100470,02,Städt. Gem. Grundschule,- Primarstufe -,,"Düsseldorf, GG Flurstr.",1,40235,Düsseldorf,Flurstr. 59,0211,8924557,0211,8924561,100470@schule.nrw.de,http://www.ggs-flurstrasse.de,1,10042,05111000,1,01.08.1973,EPSG:25832,347544,5677510,,51.228582,6.816462,Grundschule,Öffentlich,Düsseldorf,Städt. Gem. Grundschule - Primarstufe -,02118924557,Düsseldorf,Schulministerium NRW Open Data,2026-02-17,Nordrhein-Westfalen,7.0
100481,02,Städt. Katholische Grundschule,Florensstraße,- Primarstufe -,"Düsseldorf, KG Florensstraße",1,40221,Düsseldorf,Heinsenstr. 21,0211,8924395,0211,8924398,100481@schule.nrw.de,http://www.kg-florensstr.eschool.de/,1,10042,05111000,1,01.08.1973,EPSG:25832,342226,5675149,,51.205923,6.741396,Grundschule,Öffentlich,Düsseldorf,Städt. Katholische Grundschule Florensstraße - Primarstufe -,02118924395,Düsseldorf,Schulministerium NRW Open Data,2026-02-17,Nordrhein-Westfalen,1.0
100493,02,Fleher Schule,Städt. Kath. Grundschule,- Primarstufe -,"Düsseldorf, KG Fleher Schule",1,40223,Düsseldorf,Fleher Str. 213,0211,8926940,0211,8926949,100493@schule.nrw.de,http://www.kgs-flehe.de,1,10042,05111000,1,01.08.1973,EPSG:25832,344144,5673735,,51.193744,6.769445,Grundschule,Öffentlich,Düsseldorf,Fleher Schule Städt. Kath. Grundschule - Primarstufe -,02118926940,Düsseldorf,Schulministerium NRW Open Data,2026-02-17,Nordrhein-Westfalen,2.0
100500,02,Bonifatiusschule,Städt. Kath. Grundschule,- Primarstufe -,"Düsseldorf, KG Bonifatiusschule",1,40223,Düsseldorf,Fleher Str. 70,0211,8922110,0211,8929638,100500@schule.nrw.de,http://www.bonifatiusschule-duesseldorf.de,1,10042,05111000,1,01.08.1973,EPSG:25832,343958,5674723,,51.202571,6.766356,Grundschule,Öffentlich,Düsseldorf,Bonifatiusschule Städt. Kath. Grundschule - Primarstufe -,02118922110,Düsseldorf,Schulministerium NRW Open Data,2026-02-17,Nordrhein-Westfalen,2.0
100523,02,St. Franziskus Schule,Städt. Kath. Grundschule,- Primarstufe -,"Düsseldorf, KG St. Franziskus Schule",1,40470,Düsseldorf,Herchenbachstr. 2,0211,8924810,0211,8925607,100523@schule.nrw.de,http://www.st-franziskus.schule.de,1,10042,05111000,1,01.08.1973,EPSG:25832,347100,5679905,,51.249984,6.809085,Grundschule,Öffentlich,Düsseldorf,St. Franziskus Schule Städt. Kath. Grundschule - Primarstufe -,02118924810,Düsseldorf,Schulministerium NRW Open Data,2026-02-17,Nordrhein-Westfalen,3.0
100535,02,Städt. Kath. Grundschule,- Primarstufe -,,"Düsseldorf, KG Essener Str.",1,40476,Düsseldorf,Essener Str. 1,0211,8923807,0211,8923812,100535@schule.nrw.de,https://grundschule-essenerstrasse.de/,1,10042,05111000,1,01.08.1973,EPSG:25832,345364,5679297,,51.244053,6.784492,Grundschule,Öffentlich,Düsseldorf,Städt. Kath. Grundschule - Primarstufe -,02118923807,Düsseldorf,Schulministerium NRW Open Data,2026-02-17,Nordrhein-Westfalen,5.0
100547,02,St. Cäcilia Schule,Städt. Kath. Grundschule,,"Düsseldorf, KG St. Cäcilia Schule",1,40597,Düsseldorf,Erich-Müller-Str. 31,0211,8928380,0211,8929672,100547@schule.nrw.de,http://www.kg-st-caecilia.eschool.de,1,10042,05111000,1,01.08.1973,EPSG:25832,351018,5670572,,51.167155,6.86906,Grundschule,Öffentlich,Düsseldorf,St. Cäcilia Schule Städt. Kath. Grundschule,02118928380,Düsseldorf,Schulministerium NRW Open Data,2026-02-17,Nordrhein-Westfalen,3.0
100560,02,Städt. Kath. Grundschule,- Primarstufe -,,"Düsseldorf, KG Einsiedelstr.",1,40597,Düsseldorf,Einsiedelstr. 25,0211,9822648,0211,8922654,100560@schule.nrw.de,http://www.kg-einsiedelstrasse.de,1,10042,05111000,1,01.08.1973,EPSG:25832,352148,5670092,,51.163135,6.885408,Grundschule,Öffentlich,Düsseldorf,Städt. Kath. Grundschule - Primarstufe -,02119822648,Düsseldorf,Schulministerium NRW Open Data,2026-02-17,Nordrhein-Westfalen,4.0
100572,02,Max-Schule,Städt. Kath. Grundschule,- Primarstufe -,"Düsseldorf, KG Max-Schule",1,40213,Düsseldorf,Citadellstr. 2 B,0211,8992493,0211,8929453,100572@schule.nrw.de,http://www.maxschule.de,1,10042,05111000,1,01.08.1973,EPSG:25832,344321,5677005,,51.223175,6.770557,Grundschule,Öffentlich,Düsseldorf,Max-Schule Städt. Kath. Grundschule - Primarstufe -,02118992493,Düsseldorf,Schulministerium NRW Open Data,2026-02-17,Nordrhein-Westfalen,4.0
100584,02,St. Elisabeth Schule,Städt. Kath. Grundschule,,"Düsseldorf, KG St. Elisabeth Schule",1,40599,Düsseldorf,Buchenstr. 16,0211,744319,0211,7487190,100584@schule.nrw.de,http://www.sankt-elisabeth-schule-duesseldorf.de,1,10042,05111000,1,01.08.1973,EPSG:25832,350481,5671878,,51.178751,6.860841,Grundschule,Öffentlich,Düsseldorf,St. Elisabeth Schule Städt. Kath. Grundschule,0211744319,Düsseldorf,Schulministerium NRW Open Data,2026-02-17,Nordrhein-Westfalen,9.0
100596,02,St. Rochus-Schule,Städt. Katholische Grundschule,- Primarstufe -,"Düsseldorf, KG St. Rochus-Schule",1,40477,Düsseldorf,Blücherstr. 12,0211,8928300,0211,8929622,100596@schule.nrw.de,http://st-rochus-schule.de,1,10042,05111000,1,01.08.1973,EPSG:25832,345241,5678844,,51.239949,6.782927,Grundschule,Öffentlich,Düsseldorf,St. Rochus-Schule Städt. Katholische Grundschule - Primarstufe -,02118928300,Düsseldorf,Schulministerium NRW Open Data,2026-02-17,Nordrhein-Westfalen,2.0
100602,02,Thomas-Schule,Städt. Kath. Grundschule,,"Düsseldorf, KG Thomas-Schule",1,40476,Düsseldorf,Blumenthalstr. 11,0211,8924682,0211,8924689,100602@schule.nrw.de,http://www.thomas-schule.de,1,10042,05111000,1,01.08.1973,EPSG:25832,345106,5679832,,51.24879,6.780567,Grundschule,Öffentlich,Düsseldorf,Thomas-Schule Städt. Kath. Grundschule,02118924682,Düsseldorf,Schulministerium NRW Open Data,2026-02-17,Nordrhein-Westfalen,5.0
100638,02,Montessori-Grundschule Farnweg,Städt. Gem. Grundschule,-Primarstufe-,"Düsseldorf, GG Montessori-Schule",1,40468,Düsseldorf,Farnweg 10,0211,4350990,0211,5162330,100638@schule.nrw.de,https://mgs-farnweg.de/,1,10042,05111000,1,01.08.1973,EPSG:25832,343436,5681828,,51.266268,6.755785,Grundschule,Öffentlich,Düsseldorf,Montessori-Grundschule Farnweg Städt. Gem. Grundschule -Primarstufe-,02114350990,Düsseldorf,Schulministerium NRW Open Data,2026-02-17,Nordrhein-Westfalen,1.0
100651,02,Adolf-Klarenbach-Schule,Städt. Gem. Grundschule,- Primarstufe -,"Düsseldorf, GG Adolf-Klarenbach",1,40589,Düsseldorf,Walther-Rathenau-Str. 15,0211,8926190,0211,8926195,100651@schule.nrw.de,http://www.adolf-klarenbach-schule.de/,1,10042,05111000,1,01.08.1973,EPSG:25832,348728,5671021,,51.170589,6.836141,Grundschule,Öffentlich,Düsseldorf,Adolf-Klarenbach-Schule Städt. Gem. Grundschule - Primarstufe -,02118926190,Düsseldorf,Schulministerium NRW Open Data,2026-02-17,Nordrhein-Westfalen,7.0
100663,02,Städt. Gem. Grundschule Unterrath,- Primarstufe -,,"Düsseldorf, GG Beedstr.",1,40468,Düsseldorf,Beedstr. 31,0211,8927950,0211,8927959,100663@schule.nrw.de,https://ggs-unterrath.de/,1,10042,05111000,1,01.08.1973,EPSG:25832,345385,5682820,,51.275714,6.78327,Grundschule,Öffentlich,Düsseldorf,Städt. Gem. Grundschule Unterrath - Primarstufe -,02118927950,Düsseldorf,Schulministerium NRW Open Data,2026-02-17,Nordrhein-Westfalen,8.0
100675,02,Selma-Lagerlöf-Schule,Städt. Gem. Grundschule,- Primarstufe -,"Düsseldorf, GG Selma-Lagerlöf",1,40599,Düsseldorf,Schillstr. 7,0211,8925700,0211,8925705,100675@schule.nrw.de,http://www.schulen.duesseldorf.de/gs-selmalagerloef/,1,10042,05111000,1,01.08.1973,EPSG:25832,351479,5671797,,51.178283,6.875143,Grundschule,Öffentlich,Düsseldorf,Selma-Lagerlöf-Schule Städt. Gem. Grundschule - Primarstufe -,02118925700,Düsseldorf,Schulministerium NRW Open Data,2026-02-17,Nordrhein-Westfalen,4.0
100687,02,Friedrich-von-Bodelschwingh Schule,Städt. Evangelische Grundschule,- Primarstufe -,"Düsseldorf, EG Friedrich-v.Bodelschwingh",1,40545,Düsseldorf,Cimbernstr. 24,0211,5585930,0211,9542252,100687@schule.nrw.de,http://www.bodelschwingh-oberkassel.de/,1,10042,05111000,1,01.08.1973,EPSG:25832,343422,5677682,,51.229012,6.757397,Grundschule,Öffentlich,Düsseldorf,Friedrich-von-Bodelschwingh Schule Städt. Evangelische Grundschule - Primarstufe -,02115585930,Düsseldorf,Schulministerium NRW Open Data,2026-02-17,Nordrhein-Westfalen,1.0
100699,02,Joachim Neander Schule,Städt. Gem. Grundschule,- Primarstufe -,"Düsseldorf, GG Joachim Neander",1,40472,Düsseldorf,Rather Markt 2,0211,9653337,0211,6509866,100699@schule.nrw.de,https://joachim-neander-schule.de/,1,10042,05111000,1,01.08.1973,EPSG:25832,348325,5681850,,51.267788,6.8258,Grundschule,Öffentlich,Düsseldorf,Joachim Neander Schule Städt. Gem. Grundschule - Primarstufe -,02119653337,Düsseldorf,Schulministerium NRW Open Data,2026-02-17,Nordrhein-Westfalen,6.0
100705,02,Brehm Schule,Städt. Ev. Grundschule,,"Düsseldorf, EG Brehm Schule",1,40237,Düsseldorf,Karl-Müller-Str. 25,0211,8923941,0211,8923950,100705@schule.nrw.de,https://brehm-schule.de/,1,10042,05111000,1,01.08.1973,EPSG:25832,347394,5678164,,51.234419,6.814037,Grundschule,Öffentlich,Düsseldorf,Brehm Schule Städt. Ev. Grundschule,02118923941,Düsseldorf,Schulministerium NRW Open Data,2026-02-17,Nordrhein-Westfalen,1.0
100717,02,Elsa-Brandström-Schule,Städtische Evangelische Montessori-,Grundschule  - Primarstufe -,"Düsseldorf, EG Elsa-Brandström-Schule",1,40468,Düsseldorf,An der Golzheimer Heide 120,0211,8923692,0211,8923699,100717@schule.nrw.de,https://www.elsa-dus.de/,1,10042,05111000,1,01.08.1973,EPSG:25832,344375,5681981,,51.2679,6.769167,Grundschule,Öffentlich,Düsseldorf,Elsa-Brandström-Schule Städtische Evangelische Montessori- Grundschule  - Primarstufe -,02118923692,Düsseldorf,Schulministerium NRW Open Data,2026-02-17,Nordrhein-Westfalen,2.0
100730,02,Martin-Luther-Schule,Städt. Ev. Grundschule,- Primarstufe -,"Düsseldorf, EG Martin-Luther-Schule",1,40225,Düsseldorf,Gotenstr. 20,0211,8921729,0211,8929461,100730@schule.nrw.de,http://www.mlsduesseldorf.de,1,10042,05111000,1,01.08.1973,EPSG:25832,344852,5673970,,51.196048,6.779468,Grundschule,Öffentlich,Düsseldorf,Martin-Luther-Schule Städt. Ev. Grundschule - Primarstufe -,02118921729,Düsseldorf,Schulministerium NRW Open Data,2026-02-17,Nordrhein-Westfalen,6.0
100742,02,Matthias-Claudius-Schule,Städt. Gemeinschaftsgrundschule,- Primarstufe -,"Düsseldorf, GG Matthias-Claudius-Schule",1,40479,Düsseldorf,Bongardstr. 9,0211,8928310,0211,8929623,100742@schule.nrw.de,http://www.mcs-duesseldorf.de,1,10042,05111000,1,01.08.1973,EPSG:25832,345471,5678255,,51.234719,6.786474,Grundschule,Öffentlich,Düsseldorf,Matthias-Claudius-Schule Städt. Gemeinschaftsgrundschule - Primarstufe -,02118928310,Düsseldorf,Schulministerium NRW Open Data,2026-02-17,Nordrhein-Westfalen,4.0
100754,02,Hanna-Zürndorfer-Schule,Städtische Evangelische Grundschule,- Primarstufe -,"Düsseldorf, EG Hanna-Zürndorfer-Schule",1,40625,Düsseldorf,Benderstr. 78,0211,8928320,0211,8929625,100754@schule.nrw.de,https://hanna-zuerndorfer-schule.de/,1,10042,05111000,1,01.08.1973,EPSG:25832,350061,5678452,,51.237714,6.85209,Grundschule,Öffentlich,Düsseldorf,Hanna-Zürndorfer-Schule Städtische Evangelische Grundschule - Primarstufe -,02118928320,Düsseldorf,Schulministerium NRW Open Data,2026-02-17,Nordrhein-Westfalen,2.0
100766,02,Beckbusch-Schule,Städtische Gemeinschaftsgrundschule,- Primarstufe -,"Düsseldorf, GG Beckbusch-Schule",1,40474,Düsseldorf,Beckbuschstr. 2,0211,8994719,0211,8929454,100766@schule.nrw.de,http://www.beckbuschschule.de,1,10042,05111000,1,01.08.1973,EPSG:25832,343162,5681676,,51.264827,6.751927,Grundschule,Öffentlich,Düsseldorf,Beckbusch-Schule Städtische Gemeinschaftsgrundschule - Primarstufe -,02118994719,Düsseldorf,Schulministerium NRW Open Data,2026-02-17,Nordrhein-Westfalen,3.0
100778,02,Städt. Gem. Grundschule Lörick,- Primarstufe -,,"Düsseldorf, GG Wickrather Str.",1,40547,Düsseldorf,Wickrather Str. 31,0211,8924635,0211,8924630,100778@schule.nrw.de,https://www.ggs-loerick.de/,1,10042,05111000,1,01.08.1973,EPSG:25832,341732,5679340,,51.243443,6.73248,Grundschule,Öffentlich,Düsseldorf,Städt. Gem. Grundschule Lörick - Primarstufe -,02118924635,Düsseldorf,Schulministerium NRW Open Data,2026-02-17,Nordrhein-Westfalen,3.0
100780,02,Städt. Gem. Grundschule,- Primarstufe -,,"Düsseldorf, GG Vennhauser Allee",1,40627,Düsseldorf,Vennhauser Allee 160-162,0211,8926630,0211,8926635,100780@schule.nrw.de,http://www.schulen.duesseldorf.de/gs-vennhauserallee/,1,10042,05111000,1,01.08.1973,EPSG:25832,350235,5674910,,51.205931,6.85606,Grundschule,Öffentlich,Düsseldorf,Städt. Gem. Grundschule - Primarstufe -,02118926630,Düsseldorf,Schulministerium NRW Open Data,2026-02-17,Nordrhein-Westfalen,3.0
100791,02,Städt. Gem. Grundschule,- Primarstufe -,,"Düsseldorf, GG Südallee",1,40593,Düsseldorf,Südallee 100,0211,8928400,0211,8929686,100791@schule.nrw.de,http://www.ggs-suedallee.de,1,10042,05111000,1,01.08.1973,EPSG:25832,351895,5669146,,51.154569,6.882182,Grundschule,Öffentlich,Düsseldorf,Städt. Gem. Grundschule - Primarstufe -,02118928400,Düsseldorf,Schulministerium NRW Open Data,2026-02-17,Nordrhein-Westfalen,3.0
100808,02,Städt. Gem. Grundschule,- Primarstufe -,,"Düsseldorf, GG Sonnenstr.",1,40227,Düsseldorf,Sonnenstr. 10,0211,8924780,0211,8929841,100808@schule.nrw.de,http://www.fgz-sonnenstrasse.de,1,10042,05111000,1,01.08.1973,EPSG:25832,345813,5675803,,51.212779,6.792423,Grundschule,Öffentlich,Düsseldorf,Städt. Gem. Grundschule - Primarstufe -,02118924780,Düsseldorf,Schulministerium NRW Open Data,2026-02-17,Nordrhein-Westfalen,9.0
100810,02,Städt. Gem. Grundschule,- Primarstufe -,,"Düsseldorf, GG Konkordiastr.",1,40219,Düsseldorf,Konkordiastr. 26,0211,8923662,0211,8923672,100810@schule.nrw.de,https://konkordiaschule.de/,1,10042,05111000,1,01.08.1973,EPSG:25832,344222,5676165,,51.2156,6.769505,Grundschule,Öffentlich,Düsseldorf,Städt. Gem. Grundschule - Primarstufe -,02118923662,Düsseldorf,Schulministerium NRW Open Data,2026-02-17,Nordrhein-Westfalen,3.0
100821,02,Don-Bosco-Montessori-Schule,Städt. Gem. Grundschule,- Primarstufe -,"Düsseldorf, GG Don-Bosco-Montessori-Schu",1,40545,Düsseldorf,Salierstr. 37,0211,8925650,0211,9542162,100821@schule.nrw.de,http://www.don-bosco-grundschule.de,1,10042,05111000,1,01.08.1973,EPSG:25832,343436,5677781,,51.229905,6.757555,Grundschule,Öffentlich,Düsseldorf,Don-Bosco-Montessori-Schule Städt. Gem. Grundschule - Primarstufe -,02118925650,Düsseldorf,Schulministerium NRW Open Data,2026-02-17,Nordrhein-Westfalen,5.0
100833,02,Städt. Gem. Grundschule,- Primarstufe -,,"Düsseldorf, GG Rolandstr.",1,40476,Düsseldorf,Rolandstr. 40,0211,8923780,0211,8923786,100833@schule.nrw.de,http://www.ggrolandstrasse-duesseldorf.de,1,10042,05111000,1,01.08.1973,EPSG:25832,344811,5679471,,51.245466,6.7765,Grundschule,Öffentlich,Düsseldorf,Städt. Gem. Grundschule - Primarstufe -,02118923780,Düsseldorf,Schulministerium NRW Open Data,2026-02-17,Nordrhein-Westfalen,4.0
100845,02,Städt. Gem. Grundschule,- Primarstufe -,,"Düsseldorf, GG Richardstr.",1,40231,Düsseldorf,Richardstr. 14,0211,8923951,0211,8923958,100845@schule.nrw.de,http://www.ggs-richardstrasse.de,1,10042,05111000,1,01.08.1973,EPSG:25832,348945,5674839,,51.204954,6.837637,Grundschule,Öffentlich,Düsseldorf,Städt. Gem. Grundschule - Primarstufe -,02118923951,Düsseldorf,Schulministerium NRW Open Data,2026-02-17,Nordrhein-Westfalen,7.0
100869,02,Städtische Gemeinschaftsgrundschule,Wrangelstraße  -Primarstufe-,,"Düsseldorf, GG Wrangelstraße",1,40470,Düsseldorf,Wrangelstr. 40,0211,8992880,0211,8929435,100869@schule.nrw.de,http://www.ggs-wrangelstrasse.de,1,10042,05111000,1,01.08.1973,EPSG:25832,347136,5680546,,51.255753,6.809327,Grundschule,Öffentlich,Düsseldorf,Städtische Gemeinschaftsgrundschule Wrangelstraße  -Primarstufe-,02118992880,Düsseldorf,Schulministerium NRW Open Data,2026-02-17,Nordrhein-Westfalen,7.0
100870,02,Städtische Gemeinschaftsgrundschule,- Primarstufe -,,"Düsseldorf, GG Neustrelitzer Str.",1,40595,Düsseldorf,Neustrelitzer Str. 10,0211,8926770,0211,8926775,100870@schule.nrw.de,http://www.neustrelitzer.de/,1,10042,05111000,1,01.08.1973,EPSG:25832,352969,5668576,,51.149723,6.897761,Grundschule,Öffentlich,Düsseldorf,Städtische Gemeinschaftsgrundschule - Primarstufe -,02118926770,Düsseldorf,Schulministerium NRW Open Data,2026-02-17,Nordrhein-Westfalen,6.0
100882,02,Grundschule Schloss Benrath,Städtische Gemeinschaftsgrundschule,- Primarstufe -,"Düsseldorf, GG Schloss Benrath",1,40597,Düsseldorf,Erich-Müller-Str. 31,0211,8928360,0211,8929665,100882@schule.nrw.de,http://www.schulen.duesseldorf.de/gs-schlossbenrath,1,10042,05111000,1,01.08.1973,EPSG:25832,351018,5670572,,51.167155,6.86906,Grundschule,Öffentlich,Düsseldorf,Grundschule Schloss Benrath Städtische Gemeinschaftsgrundschule - Primarstufe -,02118928360,Düsseldorf,Schulministerium NRW Open Data,2026-02-17,Nordrhein-Westfalen,6.0
100894,02,Städt. Gem. Grundschule,- Primarstufe -,,"Düsseldorf, GG Max-Halbe-Straße",1,40470,Düsseldorf,Max-Halbe-Str. 14,0211,8923650,0211,8923657,100894@schule.nrw.de,https://www.ggs-max-halbe-str.de/,1,10042,05111000,1,01.08.1973,EPSG:25832,347112,5680133,,51.252036,6.80916,Grundschule,Öffentlich,Düsseldorf,Städt. Gem. Grundschule - Primarstufe -,02118923650,Düsseldorf,Schulministerium NRW Open Data,2026-02-17,Nordrhein-Westfalen,8.0
100900,02,Theodor-Heuss-Schule,Städt. Gem. Grundschule,,"Düsseldorf, GG Theodor-Heuss-Schule",1,40591,Düsseldorf,Lützenkircher Str. 2,0211,8927651,0211,8929613,100900@schule.nrw.de,http://grundschule-theodor-heuss.de,1,10042,05111000,1,01.08.1973,EPSG:25832,347855,5672770,,51.186073,6.822923,Grundschule,Öffentlich,Düsseldorf,Theodor-Heuss-Schule Städt. Gem. Grundschule,02118927651,Düsseldorf,Schulministerium NRW Open Data,2026-02-17,Nordrhein-Westfalen,8.0
100924,02,Astrid-Lindgren-Schule,Städt. Gem. Grundschule,- Primarstufe -,"Düsseldorf, GG Astrid-Lindgren-Schule",1,40231,Düsseldorf,Leuthenstr. 50,0211,8926620,0211,8926625,100924@schule.nrw.de,http://www.grundschule-astrid-lindgren.de/,1,10042,05111000,1,01.08.1973,EPSG:25832,349167,5675687,,51.212632,6.840456,Grundschule,Öffentlich,Düsseldorf,Astrid-Lindgren-Schule Städt. Gem. Grundschule - Primarstufe -,02118926620,Düsseldorf,Schulministerium NRW Open Data,2026-02-17,Nordrhein-Westfalen,5.0
100936,02,Städt. Gem. Grundschule,- Primarstufe -,,"Düsseldorf, GG Lennestr.",1,40477,Düsseldorf,Lennestr. 5,0211,4846801,0211,4699754,100936@schule.nrw.de,http://www.ggs-lennestr.de,1,10042,05111000,1,01.08.1973,EPSG:25832,345775,5678747,,51.239222,6.790613,Grundschule,Öffentlich,Düsseldorf,Städt. Gem. Grundschule - Primarstufe -,02114846801,Düsseldorf,Schulministerium NRW Open Data,2026-02-17,Nordrhein-Westfalen,6.0
100950,02,Städt. Gem. Grundschule,- Primarstufe -,,"Düsseldorf, GG Krahnenburgstraße",1,40472,Düsseldorf,Krahnenburgstr. 15,0211,8923505,0211,8923508,100950@schule.nrw.de,https://ggs-krahnenburgstr.de/,1,10042,05111000,1,01.08.1973,EPSG:25832,346355,5683826,,51.285015,6.796734,Grundschule,Öffentlich,Düsseldorf,Städt. Gem. Grundschule - Primarstufe -,02118923505,Düsseldorf,Schulministerium NRW Open Data,2026-02-17,Nordrhein-Westfalen,8.0
100961,02,Städt. Gem. Grundschule,,,"Düsseldorf, GG Kronprinzenstr.",1,40217,Düsseldorf,Kronprinzenstr. 107,0211,8924667,0211,8924673,100961@schule.nrw.de,http://kronprinzenschule.de,1,10042,05111000,1,01.08.1973,EPSG:25832,344188,5675564,,51.21019,6.76928,Grundschule,Öffentlich,Düsseldorf,Städt. Gem. Grundschule,02118924667,Düsseldorf,Schulministerium NRW Open Data,2026-02-17,Nordrhein-Westfalen,1.0
100973,02,Regenbogenschule,Städtische Gemeinschaftsgrundschule,- Primarstufe -,"Düsseldorf, GG Regenbogenschule",1,40215,Düsseldorf,Kirchfeldstr. 74-80,0211,8924761,0211,8924769,100973@schule.nrw.de,http://www.regenbogenschule-duesseldorf.de,1,10042,05111000,1,01.08.1973,EPSG:25832,344909,5675808,,51.212579,6.779489,Grundschule,Öffentlich,Düsseldorf,Regenbogenschule Städtische Gemeinschaftsgrundschule - Primarstufe -,02118924761,Düsseldorf,Schulministerium NRW Open Data,2026-02-17,Nordrhein-Westfalen,6.0
100985,02,Sternwartschule,Städt. Gem. Grundschule,Im Dahlacker - Primarstufe -,"Düsseldorf, GG Sternwartschule",1,40223,Düsseldorf,Im Dahlacker 15,0211,8922118,0211,8929639,100985@schule.nrw.de,http://www.sternwartschule.de,1,10042,05111000,1,01.08.1973,EPSG:25832,344060,5674744,,51.202788,6.767805,Grundschule,Öffentlich,Düsseldorf,Sternwartschule Städt. Gem. Grundschule Im Dahlacker - Primarstufe -,02118922118,Düsseldorf,Schulministerium NRW Open Data,2026-02-17,Nordrhein-Westfalen,3.0
101000,02,Ferdinand-Heye-Schule,Städtische Gemeinschaftsgrundschule,- Primarstufe -,"Düsseldorf, GG Ferdinand-Heye-Schule",1,40625,Düsseldorf,Heyestr. 91,0211,8923763,0211,8923770,101000@schule.nrw.de,http://www.ferdinand-heye-schule.de,1,10042,05111000,1,01.08.1973,EPSG:25832,350691,5677314,,51.227653,6.861582,Grundschule,Öffentlich,Düsseldorf,Ferdinand-Heye-Schule Städtische Gemeinschaftsgrundschule - Primarstufe -,02118923763,Düsseldorf,Schulministerium NRW Open Data,2026-02-17,Nordrhein-Westfalen,6.0
101011,02,Städt. Gem. Grundschule Stoffeler Straße,- Primarstufe -,,"Düsseldorf, GG Stoffeler Straße",1,40227,Düsseldorf,Schmiedestr. 10a,0211,8999812,0211,8929603,101011@schule.nrw.de,https://gs-stoffelerstr.de/,1,10042,05111000,1,01.08.1973,EPSG:25832,346870,5675523,,51.210547,6.807665,Grundschule,Öffentlich,Düsseldorf,Städt. Gem. Grundschule Stoffeler Straße - Primarstufe -,02118999812,Düsseldorf,Schulministerium NRW Open Data,2026-02-17,Nordrhein-Westfalen,8.0
101023,02,Heinrich-Heine-Schule,Städt. Gem. Grundschule mit,katholischem Teilstandort -Primarstufe-,"Düsseldorf, GG (Verb.) Heinrich-Heine",1,40549,Düsseldorf,Heerdter Landstr. 186,0211,8926400,0211,8926405,101023@schule.nrw.de,https://www.heinrichheine-grundschule.de/,1,10042,05111000,1,01.08.1973,EPSG:25832,339827,5677998,,51.230853,6.70581,Grundschule,Öffentlich,Düsseldorf,Heinrich-Heine-Schule Städt. Gem. Grundschule mit katholischem Teilstandort -Primarstufe-,02118926400,Düsseldorf,Schulministerium NRW Open Data,2026-02-17,Nordrhein-Westfalen,6.0
101047,02,Städt. Gem. Grundschule,- Primarstufe -,,"Düsseldorf, GG Helmholtzstr.",1,40215,Düsseldorf,Helmholtzstr. 16,0211,8921780,0211,8929291,101047@schule.nrw.de,http://www.ggs-helmholtz.de,1,10042,05111000,1,01.08.1973,EPSG:25832,345552,5676126,,51.215611,6.78855,Grundschule,Öffentlich,Düsseldorf,Städt. Gem. Grundschule - Primarstufe -,02118921780,Düsseldorf,Schulministerium NRW Open Data,2026-02-17,Nordrhein-Westfalen,9.0
101059,02,Städt. Gem. Grundschule,- Primarstufe -,,"Düsseldorf, GG Adam-Stegerwald-Str.",1,40595,Düsseldorf,Adam-Stegerwald-Str. 14,0211,8924800,0211,8924803,101059@schule.nrw.de,https://gg-adam-stegerwald-str.eschool.de/,1,10042,05111000,1,01.08.1973,EPSG:25832,353466,5667790,,51.142788,6.905182,Grundschule,Öffentlich,Düsseldorf,Städt. Gem. Grundschule - Primarstufe -,02118924800,Düsseldorf,Schulministerium NRW Open Data,2026-02-17,Nordrhein-Westfalen,8.0
101060,02,Willi Fährmann Schule,Städt. Gem. Grundschule,,"Düsseldorf, GG Willi Fährmann",1,40595,Düsseldorf,Ricarda-Huch-Str. 1,0211,8925680,0211,8925677,101060@schule.nrw.de,https://www.willi-faehrmann-schule.de/,1,10042,05111000,1,01.08.1973,EPSG:25832,352988,5667259,,51.137893,6.89857,Grundschule,Öffentlich,Düsseldorf,Willi Fährmann Schule Städt. Gem. Grundschule,02118925680,Düsseldorf,Schulministerium NRW Open Data,2026-02-17,Nordrhein-Westfalen,5.0
107049,02,Wichernschule,Städt. Gem. Grundschule,mit Montessori-Schwerpunkt -Primarstufe-,"Düsseldorf, GG Wichernschule",1,40627,Düsseldorf,Brorsstr. 5,0211,8923707,0211,8923737,107049@schule.nrw.de,http://www.wichernschule-duesseldorf.de,1,10042,05111000,1,01.08.1973,EPSG:25832,353232,5674689,,51.204723,6.899022,Grundschule,Öffentlich,Düsseldorf,Wichernschule Städt. Gem. Grundschule mit Montessori-Schwerpunkt -Primarstufe-,02118923707,Düsseldorf,Schulministerium NRW Open Data,2026-02-17,Nordrhein-Westfalen,2.0
107062,02,Carl-Sonnenschein-Schule,Städt. Kath. Grundschule,,"Düsseldorf, KG Carl-Sonnenschein-Schule",1,40627,Düsseldorf,Gerresheimer Landstr. 89,0211,8923740,0211,8923747,107062@schule.nrw.de,http://www.caso-unterbach.de,1,10042,05111000,1,01.08.1973,EPSG:25832,353421,5674473,,51.202831,6.901814,Grundschule,Öffentlich,Düsseldorf,Carl-Sonnenschein-Schule Städt. Kath. Grundschule,02118923740,Düsseldorf,Schulministerium NRW Open Data,2026-02-17,Nordrhein-Westfalen,3.0
107086,02,Friedrich-von-Spee-Schule,Städt. Gem. Grundschule,- Primarstufe -,"Düsseldorf, GG Friedrich-von-Spee-Schule",1,40489,Düsseldorf,Am Litzgraben 28a,0211,8928050,0211,8928059,107086@schule.nrw.de,http://www.friedrichvonspeeschule.de,1,10042,05111000,1,01.08.1973,EPSG:25832,345736,5688693,,51.32858,6.78576,Grundschule,Öffentlich,Düsseldorf,Friedrich-von-Spee-Schule Städt. Gem. Grundschule - Primarstufe -,02118928050,Düsseldorf,Schulministerium NRW Open Data,2026-02-17,Nordrhein-Westfalen,2.0
107141,02,Franz-Vaahsen-Schule,Kath. Grundschule Wittlaer,- Primarstufe -,"Düsseldorf, KG Franz-Vaahsen-Schule",1,40489,Düsseldorf,Grenzweg 12,0211,8922657,0211,8922666,107141@schule.nrw.de,http://kg-franz-vaahsen.eschool.de,1,10042,05111000,1,01.08.1973,EPSG:25832,342346,5688596,,51.326779,6.737184,Grundschule,Öffentlich,Düsseldorf,Franz-Vaahsen-Schule Kath. Grundschule Wittlaer - Primarstufe -,02118922657,Düsseldorf,Schulministerium NRW Open Data,2026-02-17,Nordrhein-Westfalen,2.0
107219,02,Gem. Grundschule Knittkuhl,- Primarstufe -,,"Düsseldorf, GG Knittkuhl",1,40629,Düsseldorf,Am Mergelsberg 1,0211,8923680,0211,8923686,107219@schule.nrw.de,http://www.ggs-knittkuhl.de,1,10042,05111000,1,01.08.1973,EPSG:25832,351766,5681706,,51.267399,6.875148,Grundschule,Öffentlich,Düsseldorf,Gem. Grundschule Knittkuhl - Primarstufe -,02118923680,Düsseldorf,Schulministerium NRW Open Data,2026-02-17,Nordrhein-Westfalen,3.0
111399,02,Städt. Gem. Grundschule,Stenzelbergstr.,,"Köln, GG Stenzelbergstr.",3,50939,Köln,Stenzelbergstr. 3-7,0221,35501350,0221,355013520,111399@schule.nrw.de,http://www.ggs-stenzelbergstrasse-koeln.de/,1,10182,05315000,1,01.08.1973,EPSG:25832,354490,5641933,,50.910683,6.930189,Grundschule,Öffentlich,Köln,Städt. Gem. Grundschule Stenzelbergstr.,022135501350,Köln,Schulministerium NRW Open Data,2026-02-17,Nordrhein-Westfalen,2.0
111405,02,Städt. Kath. Grundschule,Gutnickstr.,,"Köln, KG Gutnickstr.",3,50769,Köln,Gutnickstr. 37,0221,28552660,0221,285526618,111405@schule.nrw.de,http://www.kgs-gutnickstrasse.de,1,10182,05315000,1,01.08.1973,EPSG:25832,349096,5657052,,51.045161,6.847243,Grundschule,Öffentlich,Köln,Städt. Kath. Grundschule Gutnickstr.,022128552660,Köln,Schulministerium NRW Open Data,2026-02-17,Nordrhein-Westfalen,5.0
111417,02,Michael-Ende-Schule,Städt. Gem. Grundschule,,"Köln, GG Michael-Ende",3,50825,Köln,Platenstr. 7-9,0221,3998030,0221,556576,111417@schule.nrw.de,http://www.michael-ende-schule-koeln.de,1,10182,05315000,1,01.08.1973,EPSG:25832,353493,5646683,,50.953118,6.914108,Grundschule,Öffentlich,Köln,Michael-Ende-Schule Städt. Gem. Grundschule,02213998030,Köln,Schulministerium NRW Open Data,2026-02-17,Nordrhein-Westfalen,3.0
111429,02,Stadt Köln,Maternus-Grundschule,gem Grundschule - Primarstufe,"Köln, GG Maternus-Schule",3,50733,Köln,Bülowstr. 90,0221,492249910,0221,492249922,111429@schule.nrw.de,http://www.kgs-buelowstrasse.de/,1,10182,05315000,1,01.08.1973,EPSG:25832,356538,5648462,,50.969871,6.95673,Grundschule,Öffentlich,Köln,Stadt Köln Maternus-Grundschule gem Grundschule - Primarstufe,0221492249910,Köln,Schulministerium NRW Open Data,2026-02-17,Nordrhein-Westfalen,3.0
111430,02,Franziskus-Schule,Städt. Kath. Grundschule,- Primarstufe -,"Köln, KG Franziskus-Schule",3,50968,Köln,Cäsarstr. 21,0221,222101410,0221,222101419,111430@schule.nrw.de,http://www.franziskus-schule-koeln.de/,1,10182,05315000,1,01.08.1973,EPSG:25832,357046,5641497,,50.907404,6.966693,Grundschule,Öffentlich,Köln,Franziskus-Schule Städt. Kath. Grundschule - Primarstufe -,0221222101410,Köln,Schulministerium NRW Open Data,2026-02-17,Nordrhein-Westfalen,2.0
111442,02,Stadt Köln,Freinet-Schule Köln,Gemeinschaftsgrundschule -Primarstufe-,"Köln, GG Freinet-Schule",3,50670,Köln,Gereonswall 57,0221,22136010,0221,22136021,111442@schule.nrw.de,http://www.freinet-schule-koeln.de,1,10182,05315000,1,01.08.1973,EPSG:25832,355869,5645830,,50.946051,6.948251,Grundschule,Öffentlich,Köln,Stadt Köln Freinet-Schule Köln Gemeinschaftsgrundschule -Primarstufe-,022122136010,Köln,Schulministerium NRW Open Data,2026-02-17,Nordrhein-Westfalen,4.0
111454,02,Städt. Kath. Grundschule,Diependahlstr.,,"Köln, KG Diependahlstr.",3,51061,Köln,Diependahlstr. 12,0221,661430,0221,2619227,111454@schule.nrw.de,http://www.kgs-diependahl.de/,1,10182,05315000,1,01.08.1973,EPSG:25832,358722,5650297,,50.986902,6.987102,Grundschule,Öffentlich,Köln,Städt. Kath. Grundschule Diependahlstr.,0221661430,Köln,Schulministerium NRW Open Data,2026-02-17,Nordrhein-Westfalen,2.0
111466,02,Städt. Kath. Grundschule,Erlenweg,,"Köln, KG Erlenweg",3,50827,Köln,Erlenweg 16,0221,22252770,0221,222527719,111466@schule.nrw.de,http://kgs-erlenweg.de/,1,10182,05315000,1,01.08.1973,EPSG:25832,352106,5648016,,50.964743,6.893833,Grundschule,Öffentlich,Köln,Städt. Kath. Grundschule Erlenweg,022122252770,Köln,Schulministerium NRW Open Data,2026-02-17,Nordrhein-Westfalen,5.0
111478,02,Städt. Kath. Grundschule,Everhardstr.,,"Köln, KG Everhardstr.",3,50823,Köln,Everhardstr. 60,0221,95297711,0221,95297719,111478@schule.nrw.de,http://www.kgs-everhardstrasse.de,1,10182,05315000,1,01.08.1973,EPSG:25832,354472,5646212,,50.949133,6.928225,Grundschule,Öffentlich,Köln,Städt. Kath. Grundschule Everhardstr.,022195297711,Köln,Schulministerium NRW Open Data,2026-02-17,Nordrhein-Westfalen,3.0
111480,02,Hans-Christian-Andersen-Schule,Kath. Grundschule,- Primarstufe -,"Köln, KG Hans-Christian-Andersen",3,50935,Köln,Freiligrathstr. 60,0221,33730880,0221,337308810,111480@schule.nrw.de,http://www.hanschristianandersenschule.de,1,10182,05315000,1,01.08.1973,EPSG:25832,352580,5643309,,50.922564,6.902484,Grundschule,Öffentlich,Köln,Hans-Christian-Andersen-Schule Kath. Grundschule - Primarstufe -,022133730880,Köln,Schulministerium NRW Open Data,2026-02-17,Nordrhein-Westfalen,2.0
111491,02,Städt. Kath. Grundschule,Friedlandstr.,,"Köln, KG Friedlandstr.",3,51067,Köln,Friedlandstr. 5,0221,93889980,0221,938899821,111491@schule.nrw.de,http://kgs-friedlandstrasse.de,1,10182,05315000,1,01.08.1973,EPSG:25832,362426,5648297,,50.969825,7.040599,Grundschule,Öffentlich,Köln,Städt. Kath. Grundschule Friedlandstr.,022193889980,Köln,Schulministerium NRW Open Data,2026-02-17,Nordrhein-Westfalen,5.0
111510,02,Städt. Kath. Grundschule,Fußfallstr.,,"Köln, KG Fußfallstr.",3,51109,Köln,Fußfallstr. 55,0221,99211090,0221,992110925,111510@schule.nrw.de,https://www.kgs-fussfallstrasse.de/,1,10182,05315000,1,01.08.1973,EPSG:25832,362717,5646036,,50.949574,7.045594,Grundschule,Öffentlich,Köln,Städt. Kath. Grundschule Fußfallstr.,022199211090,Köln,Schulministerium NRW Open Data,2026-02-17,Nordrhein-Westfalen,5.0
111521,02,Otfried-Preußler-Schule,Städt. Kath. Grundschule,- Primarstufe -,"Köln, KG Otfried-Preußler",3,50735,Köln,Garthestr. 20-24,0221,9765360,0221,97653629,111521@schule.nrw.de,http://www.ops-koeln.de/,1,10182,05315000,1,01.08.1973,EPSG:25832,357826,5647934,,50.965446,6.975269,Grundschule,Öffentlich,Köln,Otfried-Preußler-Schule Städt. Kath. Grundschule - Primarstufe -,02219765360,Köln,Schulministerium NRW Open Data,2026-02-17,Nordrhein-Westfalen,4.0
111545,02,Städt. Kath. Grundschule,Gotenring,,"Köln, KG Gotenring",3,50679,Köln,Gotenring 5,0221,33750030,0221,337500319,111545@schule.nrw.de,http://kgs-gotenring.de/,1,10182,05315000,1,01.08.1973,EPSG:25832,357980,5644649,,50.935961,6.978742,Grundschule,Öffentlich,Köln,Städt. Kath. Grundschule Gotenring,022133750030,Köln,Schulministerium NRW Open Data,2026-02-17,Nordrhein-Westfalen,5.0
111557,02,Städt. Kath. Grundschule,Lebensbaumweg,,"Köln, KG Lebensbaumweg",3,50767,Köln,Lebensbaumweg 51,0221,97942410,0221,97942417,111557@schule.nrw.de,http://www.kgs-lebensbaumweg.de,1,10182,05315000,1,01.08.1973,EPSG:25832,352821,5653031,,51.009993,6.901977,Grundschule,Öffentlich,Köln,Städt. Kath. Grundschule Lebensbaumweg,022197942410,Köln,Schulministerium NRW Open Data,2026-02-17,Nordrhein-Westfalen,3.0
111569,02,Städt. Kath. Grundschule,Heßhofstr.,,"Köln, KG Heßhofstr.",3,51107,Köln,Heßhofstr. 45,0221,35666330,0221,356663317,111569@schule.nrw.de,http://www.kgs-hesshofstrasse.koeln,1,10182,05315000,1,01.08.1973,EPSG:25832,361146,5643991,,50.930819,7.024023,Grundschule,Öffentlich,Köln,Städt. Kath. Grundschule Heßhofstr.,022135666330,Köln,Schulministerium NRW Open Data,2026-02-17,Nordrhein-Westfalen,7.0
111570,02,Städt. Kath. Grundschule,Horststr.,,"Köln, KG Horststr.",3,51063,Köln,Horststr. 1,0221,22130030,0221,22130037,111570@schule.nrw.de,http://www.kgs-horststrasse.de,1,10182,05315000,1,01.08.1973,EPSG:25832,359422,5647021,,50.957632,6.998335,Grundschule,Öffentlich,Köln,Städt. Kath. Grundschule Horststr.,022122130030,Köln,Schulministerium NRW Open Data,2026-02-17,Nordrhein-Westfalen,7.0
111594,02,Städt. Kath. Grundschule,Vietorstr.,,"Köln, KG Vietorstraße",3,51103,Köln,Vietorstr. 89,0221,99222010,0221,992220111,111594@schule.nrw.de,https://www.kgs-vietorstrasse.de/,1,10182,05315000,1,01.08.1973,EPSG:25832,359463,5645292,,50.942103,6.999586,Grundschule,Öffentlich,Köln,Städt. Kath. Grundschule Vietorstr.,022199222010,Köln,Schulministerium NRW Open Data,2026-02-17,Nordrhein-Westfalen,7.0
111624,02,Vincenz-Statz-Schule,Städt. Kath. Grundschule,- Primarstufe -,"Köln, KG Vincenz-Statz",3,50823,Köln,Lindenbornstr. 15-19,0221,22138070,0221,22138072,111624@schule.nrw.de,http://www.kgs-vincenz-statz.de,1,10182,05315000,1,01.08.1973,EPSG:25832,353524,5645855,,50.945685,6.914882,Grundschule,Öffentlich,Köln,Vincenz-Statz-Schule Städt. Kath. Grundschule - Primarstufe -,022122138070,Köln,Schulministerium NRW Open Data,2026-02-17,Nordrhein-Westfalen,6.0
111636,02,Städt. Kath. Grundschule,Lindenburger Allee,,"Köln, KG Lindenburger Allee",3,50931,Köln,Lindenburger Allee 38,0221,355899711,0221,355899717,111636@schule.nrw.de,http://www.kgs-lindenburger-allee.de,1,10182,05315000,1,01.08.1973,EPSG:25832,353535,5643798,,50.927202,6.915866,Grundschule,Öffentlich,Köln,Städt. Kath. Grundschule Lindenburger Allee,0221355899711,Köln,Schulministerium NRW Open Data,2026-02-17,Nordrhein-Westfalen,2.0
111648,02,Stephan-Lochner-Schule,Städt. Gemeinschaftsgrundschule,- Primarstufe -,"Köln, GG Stephan-Lochner-Schule",3,50674,Köln,Lochnerstr. 13-15,0221,35533680,0221,355336812,111648@schule.nrw.de,http://www.stephan-lochner-schule.de,1,10182,05315000,1,01.08.1973,EPSG:25832,354933,5644086,,50.930144,6.93563,Grundschule,Öffentlich,Köln,Stephan-Lochner-Schule Städt. Gemeinschaftsgrundschule - Primarstufe -,022135533680,Köln,Schulministerium NRW Open Data,2026-02-17,Nordrhein-Westfalen,3.0
111650,02,Marienschule,Städt. Kath. Grundschule,- Primarstufe -,"Köln, KG Marienschule",3,50737,Köln,Altonaer Str. 32,0221,9659770,0221,96597717,111650@schule.nrw.de,http://www.marienschule-koeln.jimdo.com,1,10182,05315000,1,01.08.1973,EPSG:25832,354331,5651386,,50.995594,6.924147,Grundschule,Öffentlich,Köln,Marienschule Städt. Kath. Grundschule - Primarstufe -,02219659770,Köln,Schulministerium NRW Open Data,2026-02-17,Nordrhein-Westfalen,2.0
111661,02,Städt. Kath. Grundschule,Lohrbergstr.,,"Köln, KG Lohrbergstr.",3,50939,Köln,Lohrbergstr. 46,0221,35588910,0221,355889120,111661@schule.nrw.de,https://111661.nrw.schule/public,1,10182,05315000,1,01.08.1973,EPSG:25832,354015,5641871,,50.910006,6.923462,Grundschule,Öffentlich,Köln,Städt. Kath. Grundschule Lohrbergstr.,022135588910,Köln,Schulministerium NRW Open Data,2026-02-17,Nordrhein-Westfalen,1.0
111673,02,Stadt Köln,Sternsingerschule,Katholische Grundschule,"Köln, KG Longericher Hauptstraße",3,50739,Köln,Longericher Hauptstr. 83-85,0221,99100200,0221,991002022,111673@schule.nrw.de,http://www.kgs-longericher-hauptstr.de/,1,10182,05315000,1,01.08.1973,EPSG:25832,352989,5651523,,50.996484,6.904981,Grundschule,Öffentlich,Köln,Stadt Köln Sternsingerschule Katholische Grundschule,022199100200,Köln,Schulministerium NRW Open Data,2026-02-17,Nordrhein-Westfalen,5.0
111697,02,Städt. Kath. Grundschule,Mainzer Str.,,"Köln, KG Mainzer Str.",3,50678,Köln,Mainzer Str. 30-34,0221,35666360,0221,356663637,111697@schule.nrw.de,https://www.kgsmainzerstrasse.de/,1,10182,05315000,1,01.08.1973,EPSG:25832,356894,5642874,,50.919741,6.963993,Grundschule,Öffentlich,Köln,Städt. Kath. Grundschule Mainzer Str.,022135666360,Köln,Schulministerium NRW Open Data,2026-02-17,Nordrhein-Westfalen,2.0
111703,02,Städt. Kath. Grundschule,Mengenicher Str.,,"Köln, KG Mengenicher Str.",3,50829,Köln,Mengenicher Str. 28,0221,22139341,0221,22139344,111703@schule.nrw.de,http://www.kgs-mengenicher.de,1,10182,05315000,1,01.08.1973,EPSG:25832,349938,5649301,,50.975729,6.862451,Grundschule,Öffentlich,Köln,Städt. Kath. Grundschule Mengenicher Str.,022122139341,Köln,Schulministerium NRW Open Data,2026-02-17,Nordrhein-Westfalen,6.0
111715,02,Städt. Gem. Grundschule,Nesselrodestr.,,"Köln, GG Nesselrodestr.",3,50735,Köln,Nesselrodestr. 15,0221,22252230,0221,222522330,111715@schule.nrw.de,http://www.ggsnesselrode-koeln.de,1,10182,05315000,1,01.08.1973,EPSG:25832,357133,5649292,,50.977478,6.964873,Grundschule,Öffentlich,Köln,Städt. Gem. Grundschule Nesselrodestr.,022122252230,Köln,Schulministerium NRW Open Data,2026-02-17,Nordrhein-Westfalen,6.0
111727,02,Städt. Kath. Grundschule,Neufelder Str.,,"Köln, KG Neufelder Str.",3,51067,Köln,Neufelder Str. 2-4,0221,96500100,0221,965001013,111727@schule.nrw.de,http://www.kgs-neufelder-strasse.de,1,10182,05315000,1,01.08.1973,EPSG:25832,363401,5648297,,50.970057,7.054477,Grundschule,Öffentlich,Köln,Städt. Kath. Grundschule Neufelder Str.,022196500100,Köln,Schulministerium NRW Open Data,2026-02-17,Nordrhein-Westfalen,5.0
111739,02,Städt. Kath. Grundschule,Olpener Str.,,"Köln, KG Olpener Str.",3,51109,Köln,Olpener Str. 930,0221,33773790,0221,337737919,111739@schule.nrw.de,https://www.kgs-olpener-strasse-koeln.de/,1,10182,05315000,1,01.08.1973,EPSG:25832,365016,5645480,,50.94512,7.07851,Grundschule,Öffentlich,Köln,Städt. Kath. Grundschule Olpener Str.,022133773790,Köln,Schulministerium NRW Open Data,2026-02-17,Nordrhein-Westfalen,3.0
111740,02,Städt. Kath. Grundschule,Osterather Str.,,"Köln, KG Osterather Str.",3,50739,Köln,Osterather Str. 13,0221,172900,0221,1701665,111740@schule.nrw.de,http://www.kgs-osterather-strasse.de/,1,10182,05315000,1,01.08.1973,EPSG:25832,355188,5647266,,50.958785,6.937992,Grundschule,Öffentlich,Köln,Städt. Kath. Grundschule Osterather Str.,0221172900,Köln,Schulministerium NRW Open Data,2026-02-17,Nordrhein-Westfalen,5.0
111752,02,Stadt Köln,Paul-Klee-Schule,Gemeinschaftsgrundschule,"Köln, GG Paul-Klee-Schule",3,50823,Köln,Ottostr. 76,0221,22131062,0221,22131066,111752@schule.nrw.de,http://www.paulkleeschule-koeln.de,1,10182,05315000,1,01.08.1973,EPSG:25832,354503,5647082,,50.956959,6.928318,Grundschule,Öffentlich,Köln,Stadt Köln Paul-Klee-Schule Gemeinschaftsgrundschule,022122131062,Köln,Schulministerium NRW Open Data,2026-02-17,Nordrhein-Westfalen,3.0
111776,02,Städt. Kath. Grundschule,Zehnthofstr.,,"Köln, KG Zehnthofstrasse",3,51107,Köln,Zehnthofstr. 22-24,0221,35589710,0221,355897124,111776@schule.nrw.de,http://www.kgs-zehnthofstrasse.de,1,10182,05315000,1,01.08.1973,EPSG:25832,362421,5643991,,50.931124,7.042155,Grundschule,Öffentlich,Köln,Städt. Kath. Grundschule Zehnthofstr.,022135589710,Köln,Schulministerium NRW Open Data,2026-02-17,Nordrhein-Westfalen,6.0
111788,02,Katholische Grundschule Dellbrück,der Stadt Köln,- Primarstufe -,"Köln, KG Dellbrück",3,51069,Köln,Thurner Str. 23,0221,9659611,0221,9659620,111788@schule.nrw.de,http://www.kgs-dellbrueck.de/,1,10182,05315000,1,01.08.1973,EPSG:25832,365017,5648834,,50.975264,7.07728,Grundschule,Öffentlich,Köln,Katholische Grundschule Dellbrück der Stadt Köln - Primarstufe -,02219659611,Köln,Schulministerium NRW Open Data,2026-02-17,Nordrhein-Westfalen,3.0
111790,02,Städt. Gem. Grundschule,Langemaß,,"Köln, GG Langemaß",3,51063,Köln,Langemaß 21,0221,3377530,0221,623734,111790@schule.nrw.de,http://www.kgs-langemass.de/,1,10182,05315000,1,01.08.1973,EPSG:25832,360182,5648287,,50.969195,7.008663,Grundschule,Öffentlich,Köln,Städt. Gem. Grundschule Langemaß,02213377530,Köln,Schulministerium NRW Open Data,2026-02-17,Nordrhein-Westfalen,9.0
111806,02,Städt. Kath. Grundschule,Trierer Str.,,"Köln, KG Trierer Straße",3,50676,Köln,Trierer Str. 8,0221,35580170,0221,355801727,111806@schule.nrw.de,,1,10182,05315000,1,01.08.1973,EPSG:25832,355699,5643807,,50.927828,6.946633,Grundschule,Öffentlich,Köln,Städt. Kath. Grundschule Trierer Str.,022135580170,Köln,Schulministerium NRW Open Data,2026-02-17,Nordrhein-Westfalen,8.0
111820,02,Kardinal-Frings-Schule,Städt. Kath. Grundschule,,"Köln, KG (Verb.) Kardinal-Frings-Schule",3,50829,Köln,Vogelsanger Str. 453,0221,355012610,0221,355012615,111820@schule.nrw.de,http://kardinal-frings-schule.de/,1,10182,05315000,1,01.08.1973,EPSG:25832,351117,5647019,,50.955528,6.880167,Grundschule,Öffentlich,Köln,Kardinal-Frings-Schule Städt. Kath. Grundschule,0221355012610,Köln,Schulministerium NRW Open Data,2026-02-17,Nordrhein-Westfalen,1.0
111831,02,Städt. Gemeinschaftsgrundschule,- Primarstufe -,,"Köln, GG Volberger Weg",3,51107,Köln,Volberger Weg 17,0221,356506233,0221,356506255,111831@schule.nrw.de,http://www.ggs-volbergerweg.de,1,10182,05315000,1,01.08.1973,EPSG:25832,365768,5643240,,50.925163,7.090033,Grundschule,Öffentlich,Köln,Städt. Gemeinschaftsgrundschule - Primarstufe -,0221356506233,Köln,Schulministerium NRW Open Data,2026-02-17,Nordrhein-Westfalen,3.0
111879,02,Peter-Lustig-Schule,Städt. Gem. Grundschule,,"Köln, GG Peter-Lustig-Schule",3,50827,Köln,Wilhelm-Schreiber-Str. 56,0221,22252550,0221,222525521,111879@schule.nrw.de,http://peter-lustig-schule.de,1,10182,05315000,1,01.08.1973,EPSG:25832,352578,5648703,,50.971037,6.900272,Grundschule,Öffentlich,Köln,Peter-Lustig-Schule Städt. Gem. Grundschule,022122252550,Köln,Schulministerium NRW Open Data,2026-02-17,Nordrhein-Westfalen,4.0
111880,02,Städt. Kath. Grundschule,Zugweg,,"Köln, KG Zugweg",3,50677,Köln,Zugweg 42-44,0221,35501340,0221,355013430,111880@schule.nrw.de,http://www.kgszugweg.de,1,10182,05315000,1,01.08.1973,EPSG:25832,356419,5642717,,50.918212,6.957301,Grundschule,Öffentlich,Köln,Städt. Kath. Grundschule Zugweg,022135501340,Köln,Schulministerium NRW Open Data,2026-02-17,Nordrhein-Westfalen,8.0
111909,02,Städt. Gem. Grundschule,Balthasarstr.,,"Köln, GG Balthasarstr.",3,50670,Köln,Balthasarstr. 87,0221,35589740,0221,355897418,111909@schule.nrw.de,http://www.ggsbalthasar.de,1,10182,05315000,1,01.08.1973,EPSG:25832,356732,5646575,,50.952962,6.960234,Grundschule,Öffentlich,Köln,Städt. Gem. Grundschule Balthasarstr.,022135589740,Köln,Schulministerium NRW Open Data,2026-02-17,Nordrhein-Westfalen,1.0
111910,02,Städt. Gem. Grundschule,Ernstbergstr.,,"Köln, GG Ernstbergstr.",3,50765,Köln,Ernstbergstr. 2,0221,2228800,0221,22288024,111910@schule.nrw.de,http://www.ggs-ernstbergstrasse.de,1,10182,05315000,1,01.08.1973,EPSG:25832,351590,5656412,,51.040059,6.883058,Grundschule,Öffentlich,Köln,Städt. Gem. Grundschule Ernstbergstr.,02212228800,Köln,Schulministerium NRW Open Data,2026-02-17,Nordrhein-Westfalen,7.0
111922,02,Städt. Gem. Grundschule,Bachemer Str.,,"Köln, GG Bachemer Str.",3,50931,Köln,Bachemer Str. 69,0221,22251910,0221,222519191,111922@schule.nrw.de,https://www.ggsbachemer.de,1,10182,05315000,1,01.08.1973,EPSG:25832,353740,5643983,,50.928917,6.918706,Grundschule,Öffentlich,Köln,Städt. Gem. Grundschule Bachemer Str.,022122251910,Köln,Schulministerium NRW Open Data,2026-02-17,Nordrhein-Westfalen,2.0
111934,02,Städt. Kath. Grundschule,Berrenrather Str.,,"Köln, KG Berrenrather Straße",3,50937,Köln,Berrenrather Str. 179,0221,99225940,0221,992259420,111934@schule.nrw.de,http://www.kgsberrenratherstrasse.de/,1,10182,05315000,1,01.08.1973,EPSG:25832,354315,5642954,,50.919815,6.927294,Grundschule,Öffentlich,Köln,Städt. Kath. Grundschule Berrenrather Str.,022199225940,Köln,Schulministerium NRW Open Data,2026-02-17,Nordrhein-Westfalen,2.0
111946,02,Sankt-Nikolaus-Schule,Städt. Gemeinschaftsgrundschule,- Primarstufe -,"Köln, GG Sankt-Nikolaus-Schule",3,50969,Köln,Bernkasteler Str. 9,0221,35501560,0221,355015610,111946@schule.nrw.de,http://www.sanktnikolausschule-koeln.de/,1,10182,05315000,1,01.08.1973,EPSG:25832,355090,5641611,,50.907941,6.938846,Grundschule,Öffentlich,Köln,Sankt-Nikolaus-Schule Städt. Gemeinschaftsgrundschule - Primarstufe -,022135501560,Köln,Schulministerium NRW Open Data,2026-02-17,Nordrhein-Westfalen,5.0
111958,02,Nikolaus-Groß-Schule,Kath. Grundschule,- Primarstufe -,"Köln, KG Nikolaus-Groß-Schule",3,50670,Köln,Bernhard-Letterhaus-Str. 17,0221,35589750,0221,355897528,111958@schule.nrw.de,http://www.nikolaus-gross-schule.koeln,1,10182,05315000,1,01.08.1973,EPSG:25832,356169,5646835,,50.955158,6.952121,Grundschule,Öffentlich,Köln,Nikolaus-Groß-Schule Kath. Grundschule - Primarstufe -,022135589750,Köln,Schulministerium NRW Open Data,2026-02-17,Nordrhein-Westfalen,4.0
111971,02,St. Martin-Schule,Städt. Kath. Grundschule,- Primarstufe -,"Köln, KG St. Martin-Schule",3,50769,Köln,Balsaminenweg 52,0221,71663410,0221,716634122,111971@schule.nrw.de,http://www.st-martin-schule-koeln.de,1,10182,05315000,1,01.08.1973,EPSG:25832,353720,5653862,,51.01769,6.914448,Grundschule,Öffentlich,Köln,St. Martin-Schule Städt. Kath. Grundschule - Primarstufe -,022171663410,Köln,Schulministerium NRW Open Data,2026-02-17,Nordrhein-Westfalen,6.0
111983,02,Berthold-Otto-Schule,Städt. Gemeinschaftsgrundschule,Primarstufe,"Köln, GG Berthold-Otto-Schule",3,51067,Köln,Buschfeldstr. 46,0221,93889970,0221,938899720,111983@schule.nrw.de,http://www.buschfeld-koeln.de,1,10182,05315000,1,01.08.1973,EPSG:25832,362387,5648409,,50.970822,7.040002,Grundschule,Öffentlich,Köln,Berthold-Otto-Schule Städt. Gemeinschaftsgrundschule Primarstufe,022193889970,Köln,Schulministerium NRW Open Data,2026-02-17,Nordrhein-Westfalen,8.0
111995,02,Astrid-Lindgren-Schule,Städt. Gem. Grundschule,,"Köln, GG Astrid-Lindgren",3,50825,Köln,Borsigstr. 13,0221,25081640,0221,250816428,111995@schule.nrw.de,http://www.astrid-lindgren-schule-koeln.de/,1,10182,05315000,1,01.08.1973,EPSG:25832,352988,5647133,,50.957033,6.906742,Grundschule,Öffentlich,Köln,Astrid-Lindgren-Schule Städt. Gem. Grundschule,022125081640,Köln,Schulministerium NRW Open Data,2026-02-17,Nordrhein-Westfalen,6.0
112008,02,Städt. Gem. Grundschule,Steinbergerstr.,,"Köln, GG Steinbergerstr.",3,50733,Köln,Steinbergerstr. 40,0221,33751640,0221,337516420,112008@schule.nrw.de,https://www.ggsssteinbergerstrasse.de/,1,10182,05315000,1,01.08.1973,EPSG:25832,356086,5647557,,50.961626,6.950655,Grundschule,Öffentlich,Köln,Städt. Gem. Grundschule Steinbergerstr.,022133751640,Köln,Schulministerium NRW Open Data,2026-02-17,Nordrhein-Westfalen,2.0
112010,02,Städt. Gem. Grundschule,Freiligrathstr.,,"Köln, GG Freiligrathstr.",3,50935,Köln,Freiligrathstr. 60,0221,337300823,0221,337300825,112010@schule.nrw.de,https://www.ggs-freiligrathstr.de/,1,10182,05315000,1,01.08.1973,EPSG:25832,352580,5643309,,50.922564,6.902484,Grundschule,Öffentlich,Köln,Städt. Gem. Grundschule Freiligrathstr.,0221337300823,Köln,Schulministerium NRW Open Data,2026-02-17,Nordrhein-Westfalen,1.0
112021,02,Städt. Gem. Grundschule,Erlenweg,,"Köln, GG Erlenweg",3,50827,Köln,Erlenweg 16,0221,35533950,0221,355339540,112021@schule.nrw.de,http://www.ggs-erlenweg.de/,1,10182,05315000,1,01.08.1973,EPSG:25832,352106,5648016,,50.964743,6.893833,Grundschule,Öffentlich,Köln,Städt. Gem. Grundschule Erlenweg,022135533950,Köln,Schulministerium NRW Open Data,2026-02-17,Nordrhein-Westfalen,7.0
112033,02,Städt. Gem. Grundschule,Diesterwegstr.,,"Köln, GG Diesterwegstr.",3,51109,Köln,Diesterwegstr. 69,0221,35650670,0221,356506755,112033@schule.nrw.de,http://ggs-brueck.de/,1,10182,05315000,1,01.08.1973,EPSG:25832,364866,5645759,,50.947592,7.076272,Grundschule,Öffentlich,Köln,Städt. Gem. Grundschule Diesterwegstr.,022135650670,Köln,Schulministerium NRW Open Data,2026-02-17,Nordrhein-Westfalen,4.0
112045,02,Maria-Sybilla-Merian-Schule,Städt. Gem. Grundschule,,"Köln, GG Maria-Sybilla-Merian-Schule",3,50968,Köln,Cäsarstr. 21,0221,222101422,0221,222101429,112045@schule.nrw.de,http://www.ggs-caesarstrasse.de/,1,10182,05315000,1,01.08.1973,EPSG:25832,357046,5641497,,50.907404,6.966693,Grundschule,Öffentlich,Köln,Maria-Sybilla-Merian-Schule Städt. Gem. Grundschule,0221222101422,Köln,Schulministerium NRW Open Data,2026-02-17,Nordrhein-Westfalen,2.0
112057,02,Städt. Kath. Grundschule,Baadenberger Str.,,"Köln, KG Baadenberger Str.",3,50825,Köln,Baadenberger Str. 111,0221,9556970,0221,95569740,112057@schule.nrw.de,http://kgs-baadenbergerstrasse.de,1,10182,05315000,1,01.08.1973,EPSG:25832,353849,5647926,,50.964379,6.918674,Grundschule,Öffentlich,Köln,Städt. Kath. Grundschule Baadenberger Str.,02219556970,Köln,Schulministerium NRW Open Data,2026-02-17,Nordrhein-Westfalen,2.0
112082,02,Städt. Kath. Grundschule,Andreas-Hermes-Str.,,"Köln, KG Andreas-Hermes-Str.",3,51109,Köln,Andreas-Hermes-Str. 2-4,0221,35650640,0221,356506455,112082@schule.nrw.de,http://www.kgs-andreas-hermes-strasse.de/,1,10182,05315000,1,01.08.1973,EPSG:25832,363810,5644693,,50.937763,7.061647,Grundschule,Öffentlich,Köln,Städt. Kath. Grundschule Andreas-Hermes-Str.,022135650640,Köln,Schulministerium NRW Open Data,2026-02-17,Nordrhein-Westfalen,7.0
112094,02,Städt. Kath. Grundschule,An den Kaulen,,"Köln, KG An den Kaulen",3,50769,Köln,An den Kaulen 62-64,0221,35582140,0221,35582143,112094@schule.nrw.de,http://www.kgsworringen.de,1,10182,05315000,1,01.08.1973,EPSG:25832,349902,5659586,,51.068143,6.857682,Grundschule,Öffentlich,Köln,Städt. Kath. Grundschule An den Kaulen,022135582140,Köln,Schulministerium NRW Open Data,2026-02-17,Nordrhein-Westfalen,2.0
112100,02,Städt. Gem. Grundschule,Annastraße,,"Köln, GG Annastraße",3,50968,Köln,Annastr. 63,0221,28556980,0221,285569840,112100@schule.nrw.de,http://www.ggs-annastrasse-koeln.de/,1,10182,05315000,1,01.08.1973,EPSG:25832,356525,5641203,,50.904632,6.959403,Grundschule,Öffentlich,Köln,Städt. Gem. Grundschule Annastraße,022128556980,Köln,Schulministerium NRW Open Data,2026-02-17,Nordrhein-Westfalen,3.0
112112,02,Städt. Gem. Grundschule,Antwerpener Str.,,"Köln, GG Antwerpener Str.",3,50672,Köln,Kreutzerstr. 16,0221,35584910,,,112112@schule.nrw.de,http://www.grundschule-antwerpener.de/,1,10182,05315000,1,01.08.1973,EPSG:25832,354452,5645589,,50.943529,6.92819,Grundschule,Öffentlich,Köln,Städt. Gem. Grundschule Antwerpener Str.,022135584910,Köln,Schulministerium NRW Open Data,2026-02-17,Nordrhein-Westfalen,3.0
112124,02,Städt. Gem. Grundschule,An St. Theresia,,"Köln, GG An St. Theresia",3,51067,Köln,An St. Theresia 1,0221,222100210,0221,222100211,112124@schule.nrw.de,http://www.ggstheresia-koeln.de,1,10182,05315000,1,01.08.1973,EPSG:25832,361238,5647677,,50.963968,7.023926,Grundschule,Öffentlich,Köln,Städt. Gem. Grundschule An St. Theresia,0221222100210,Köln,Schulministerium NRW Open Data,2026-02-17,Nordrhein-Westfalen,9.0
112136,02,Städt. Kath. Grundschule,Am Portzenacker,- Primarstufe -,"Köln, KG Am Portzenacker",3,51069,Köln,Am Portzenacker 1b,0221,82337510,0221,823375113,112136@schule.nrw.de,http://www.kgs-am-portzenacker-koeln.de/,1,10182,05315000,1,01.08.1973,EPSG:25832,361701,5651801,,51.001142,7.028946,Grundschule,Öffentlich,Köln,Städt. Kath. Grundschule Am Portzenacker - Primarstufe -,022182337510,Köln,Schulministerium NRW Open Data,2026-02-17,Nordrhein-Westfalen,5.0
112148,02,Janusz-Korczak-Schule,Städt. Kath. Grundschule,- Primarstufe -,"Köln, KG Janusz-Korczak",3,51105,Köln,Am Altenberger Kreuz 14,0221,93830040,0221,88827419,112148@schule.nrw.de,http://www.kgs-janusz-korczak.de,1,10182,05315000,1,01.08.1973,EPSG:25832,358682,5642735,,50.918933,6.989468,Grundschule,Öffentlich,Köln,Janusz-Korczak-Schule Städt. Kath. Grundschule - Primarstufe -,022193830040,Köln,Schulministerium NRW Open Data,2026-02-17,Nordrhein-Westfalen,5.0
112150,02,Lukas-Schule,Städt. Kath. Grundschule,- Primarstufe -,"Köln, KG Lukas-Schule",3,50739,Köln,Alzeyer Str. 12,0221,28500680,0221,285006815,112150@schule.nrw.de,http://www.kgs-lukasschule.de,1,10182,05315000,1,01.08.1973,EPSG:25832,354541,5648612,,50.970719,6.928247,Grundschule,Öffentlich,Köln,Lukas-Schule Städt. Kath. Grundschule - Primarstufe -,022128500680,Köln,Schulministerium NRW Open Data,2026-02-17,Nordrhein-Westfalen,7.0
112173,02,Sankt-Mauritius-Schule,Städt. Kath. Grundschule,,"Köln, KG Sankt-Mauritius",3,51065,Köln,Alte Wipperfürther Str. 49-51,0221,35580050,0221,355800529,112173@schule.nrw.de,http://st-mauritiusschule.de/,1,10182,05315000,1,01.08.1973,EPSG:25832,360680,5646826,,50.956185,7.016311,Grundschule,Öffentlich,Köln,Sankt-Mauritius-Schule Städt. Kath. Grundschule,022135580050,Köln,Schulministerium NRW Open Data,2026-02-17,Nordrhein-Westfalen,7.0
112197,02,Städt. Gem. Grundschule,Kopernikusstr.,,"Köln, GG Kopernikusstr.",3,51065,Köln,Kopernikusstr. 40-42,0221,35570060,0221,355700625,112197@schule.nrw.de,http://ggskopernikus-koeln.de/,1,10182,05315000,1,01.08.1973,EPSG:25832,360173,5646120,,50.949717,7.009368,Grundschule,Öffentlich,Köln,Städt. Gem. Grundschule Kopernikusstr.,022135570060,Köln,Schulministerium NRW Open Data,2026-02-17,Nordrhein-Westfalen,7.0
112203,02,Grüneberg-Schule,der Stadt Köln,Gemeinschaftsgrundschule-Primarstufe,"Köln, GG Grüneberg-Schule",3,51103,Köln,Kapitelstr. 24-26,0221,99222020,0221,992220248,112203@schule.nrw.de,https://www.grueneberg-schule.de/,1,10182,05315000,1,01.08.1973,EPSG:25832,359797,5645077,,50.940253,7.00442,Grundschule,Öffentlich,Köln,Grüneberg-Schule der Stadt Köln Gemeinschaftsgrundschule-Primarstufe,022199222020,Köln,Schulministerium NRW Open Data,2026-02-17,Nordrhein-Westfalen,9.0
112239,02,Städt. Gem. Grundschule,Alzeyer Str.,,"Köln, GG Alzeyer Str.",3,50739,Köln,Alzeyer Str. 12,0221,285006920,0221,285006925,112239@schule.nrw.de,http://www.ggs-alzeyer.de/,1,10182,05315000,1,01.08.1973,EPSG:25832,354541,5648612,,50.970719,6.928247,Grundschule,Öffentlich,Köln,Städt. Gem. Grundschule Alzeyer Str.,0221285006920,Köln,Schulministerium NRW Open Data,2026-02-17,Nordrhein-Westfalen,6.0
112240,02,Städt. Gem. Grundschule,Alte Wipperführter Str.,,"Köln, GG Alte WipperfürtherStr.",3,51065,Köln,Alte Wipperfürther Str. 49,0221,35661160,0221,356611619,112240@schule.nrw.de,http://www.ggs-ahlwipp.de,1,10182,05315000,1,01.08.1973,EPSG:25832,360680,5646826,,50.956185,7.016311,Grundschule,Öffentlich,Köln,Städt. Gem. Grundschule Alte Wipperführter Str.,022135661160,Köln,Schulministerium NRW Open Data,2026-02-17,Nordrhein-Westfalen,7.0
112252,02,James-Krüss-Grundschule,Städt. Gem. Grundschule,- Primarstufe -,"Köln, GG James-Krüss",3,51107,Köln,Zehnthofstr. 22-24,0221,35589690,0221,355896923,112252@schule.nrw.de,http://www.james-kruess-grundschule-koeln.de,1,10182,05315000,1,01.08.1973,EPSG:25832,362421,5643991,,50.931124,7.042155,Grundschule,Öffentlich,Köln,James-Krüss-Grundschule Städt. Gem. Grundschule - Primarstufe -,022135589690,Köln,Schulministerium NRW Open Data,2026-02-17,Nordrhein-Westfalen,9.0
112264,02,Gemeinschaftsgrundschule Gartenstadt,der Stadt Köln,,"Köln, GG Gartenstadt",3,50737,Köln,Altonaer Str. 32,0221,8609331,0221,8609332,112264@schule.nrw.de,http://www.ggs-gartenstadt.de/,1,10182,05315000,1,01.08.1973,EPSG:25832,354331,5651386,,50.995594,6.924147,Grundschule,Öffentlich,Köln,Gemeinschaftsgrundschule Gartenstadt der Stadt Köln,02218609331,Köln,Schulministerium NRW Open Data,2026-02-17,Nordrhein-Westfalen,4.0
112288,02,Städt. Gem. Grundschule,Westerwaldstr.,,"Köln, GG Westerwaldstr.",3,51105,Köln,Westerwaldstr. 90,0221,22280070,0221,222800755,112288@schule.nrw.de,http://ggswesterwaldstr-koeln.de/,1,10182,05315000,1,01.08.1973,EPSG:25832,359179,5643834,,50.928931,6.99611,Grundschule,Öffentlich,Köln,Städt. Gem. Grundschule Westerwaldstr.,022122280070,Köln,Schulministerium NRW Open Data,2026-02-17,Nordrhein-Westfalen,8.0
112290,02,Städt. Gem. Grundschule,Halfengasse,,"Köln, GG Halfengasse",3,50735,Köln,Merkenicher Str. 313,0221,3377020,0221,33770222,112290@schule.nrw.de,http://www.ggshalfengasse.de,1,10182,05315000,1,01.08.1973,EPSG:25832,356802,5651352,,50.995909,6.959349,Grundschule,Öffentlich,Köln,Städt. Gem. Grundschule Halfengasse,02213377020,Köln,Schulministerium NRW Open Data,2026-02-17,Nordrhein-Westfalen,5.0
112306,02,Städt. Gem. Grundschule,Leuchterstr.,,"Köln, GG Leuchterstr.",3,51069,Köln,Leuchterstr. 25,0221,35589950,0221,355899522,112306@schule.nrw.de,http://www.ggs-leuchterstrasse.de,1,10182,05315000,1,01.08.1973,EPSG:25832,362336,5651318,,50.996954,7.038174,Grundschule,Öffentlich,Köln,Städt. Gem. Grundschule Leuchterstr.,022135589950,Köln,Schulministerium NRW Open Data,2026-02-17,Nordrhein-Westfalen,4.0
112318,02,Anna-Langohr-Schule,Gem. Grundschule der Stadt Köln,Primarstufe,"Köln, GG Anna-Langohr",3,50765,Köln,Fühlinger Weg 7,0221,57087111,0221,97942427,112318@schule.nrw.de,https://anna-langohr-schule.de/,1,10182,05315000,1,01.08.1973,EPSG:25832,351679,5654129,,51.019567,6.885261,Grundschule,Öffentlich,Köln,Anna-Langohr-Schule Gem. Grundschule der Stadt Köln Primarstufe,022157087111,Köln,Schulministerium NRW Open Data,2026-02-17,Nordrhein-Westfalen,6.0
112320,02,Städt. Gem. Grundschule,Loreleystr.,,"Köln, GG Loreleystr.",3,50677,Köln,Loreleystr. 3-5,0221,22135281,0221,22135279,112320@schule.nrw.de,http://www.ggs-loreleystr.de,1,10182,05315000,1,01.08.1973,EPSG:25832,356050,5642891,,50.919684,6.951986,Grundschule,Öffentlich,Köln,Städt. Gem. Grundschule Loreleystr.,022122135281,Köln,Schulministerium NRW Open Data,2026-02-17,Nordrhein-Westfalen,1.0
112331,02,Städt. Gem. Grundschule,Lohmarer Str.,,"Köln, GG Lohmarer Straße",3,51105,Köln,Lohmarer Str. 11,0221,99224890,0221,992248999,112331@schule.nrw.de,http://www.lohmarer-strasse.de,1,10182,05315000,1,01.08.1973,EPSG:25832,359861,5643818,,50.928953,7.005814,Grundschule,Öffentlich,Köln,Städt. Gem. Grundschule Lohmarer Str.,022199224890,Köln,Schulministerium NRW Open Data,2026-02-17,Nordrhein-Westfalen,8.0
112343,02,Lindenbornschule,Gem. Grundschule der Stadt Köln,Primarstufe,"Köln, GG Lindenbornschule",3,50823,Köln,Lindenbornstr. 15-19,0221,22138060,0221,22138065,112343@schule.nrw.de,http://www.ggs-lindenbornstrasse.de,1,10182,05315000,1,01.08.1973,EPSG:25832,353524,5645855,,50.945685,6.914882,Grundschule,Öffentlich,Köln,Lindenbornschule Gem. Grundschule der Stadt Köln Primarstufe,022122138060,Köln,Schulministerium NRW Open Data,2026-02-17,Nordrhein-Westfalen,2.0
112355,02,Städt. Gem. Grundschule,Poller Hauptstr.,,"Köln, GG Poller Hauptstraße",3,51105,Köln,Poller Hauptstr. 61-65,0221,99211690,0221,992116919,112355@schule.nrw.de,http://www.ggs-poll-koeln.de,1,10182,05315000,1,01.08.1973,EPSG:25832,358840,5641952,,50.911934,6.992017,Grundschule,Öffentlich,Köln,Städt. Gem. Grundschule Poller Hauptstr.,022199211690,Köln,Schulministerium NRW Open Data,2026-02-17,Nordrhein-Westfalen,3.0
112367,02,Städt. Gem. Grundschule,Weimarer Str.,,"Köln, GG Weimarer Str.",3,51103,Köln,Weimarer Str. 28,0221,47447170,0221,474471719,112367@schule.nrw.de,http://www.ggs-weimar-koeln.de,1,10182,05315000,1,01.08.1973,EPSG:25832,360997,5645612,,50.945351,7.021285,Grundschule,Öffentlich,Köln,Städt. Gem. Grundschule Weimarer Str.,022147447170,Köln,Schulministerium NRW Open Data,2026-02-17,Nordrhein-Westfalen,8.0
112379,02,Mathilde-von-Mevissen-Grundschule,Städt. Gemeinschaftsgrundschule,- Primarstufe -,"Köln, GG Mathilde-von-Mevissen",3,50733,Köln,Gellertstr. 4-6,0221,35509990,0221,7325808,112379@schule.nrw.de,http://www.mathildevonmevissengrundschule.de,1,10182,05315000,1,01.08.1973,EPSG:25832,356610,5647661,,50.962691,6.958071,Grundschule,Öffentlich,Köln,Mathilde-von-Mevissen-Grundschule Städt. Gemeinschaftsgrundschule - Primarstufe -,022135509990,Köln,Schulministerium NRW Open Data,2026-02-17,Nordrhein-Westfalen,1.0
112380,02,Städt. Gem. Grundschule,Gotenring,,"Köln, GG Gotenring",3,50679,Köln,Gotenring 5,0221,33750020,0221,337500225,112380@schule.nrw.de,http://www.ggs-gotenring.de,1,10182,05315000,1,01.08.1973,EPSG:25832,357980,5644649,,50.935961,6.978742,Grundschule,Öffentlich,Köln,Städt. Gem. Grundschule Gotenring,022133750020,Köln,Schulministerium NRW Open Data,2026-02-17,Nordrhein-Westfalen,4.0
112409,02,Städt. Gem. Grundschule,Rosenzweigweg,,"Köln, GG Rosenzweigweg",3,50969,Köln,Rosenzweigweg 3,0221,99220850,0221,992208518,112409@schule.nrw.de,http://www.ggs-rosenzweigweg.de/,1,10182,05315000,1,01.08.1973,EPSG:25832,355468,5641633,,50.908233,6.94421,Grundschule,Öffentlich,Köln,Städt. Gem. Grundschule Rosenzweigweg,022199220850,Köln,Schulministerium NRW Open Data,2026-02-17,Nordrhein-Westfalen,3.0
112410,02,Städt. Gem. Grundschule,Lustheider Str.,,"Köln, GG Lustheider Straße",3,51103,Köln,Lustheider Str. 43,0221,35661130,0221,2216569814,112410@schule.nrw.de,http://www.ggslustheiderstr.de,1,10182,05315000,1,01.08.1973,EPSG:25832,361377,5644560,,50.935988,7.027091,Grundschule,Öffentlich,Köln,Städt. Gem. Grundschule Lustheider Str.,022135661130,Köln,Schulministerium NRW Open Data,2026-02-17,Nordrhein-Westfalen,7.0
112422,02,Stadt Köln,Gemeinschaftsgrundschule Braunsfeld,,"Köln, GG Braunsfeld",3,50933,Köln,Geilenkircher Str. 52,0221,16800660,0221,168006613,112422@schule.nrw.de,https://www.ggs-braunsfeld.de/,1,10182,05315000,1,01.08.1973,EPSG:25832,352239,5645466,,50.941861,6.896761,Grundschule,Öffentlich,Köln,Stadt Köln Gemeinschaftsgrundschule Braunsfeld,022116800660,Köln,Schulministerium NRW Open Data,2026-02-17,Nordrhein-Westfalen,5.0
112434,02,Städt. Gem. Grundschule,An den Kaulen,,"Köln, GG An den Kaulen",3,50769,Köln,An den Kaulen 62-64,0221,35582240,0221,35582243,112434@schule.nrw.de,http://www.ggs-andenkaulen.de,1,10182,05315000,1,01.08.1973,EPSG:25832,349902,5659586,,51.068143,6.857682,Grundschule,Öffentlich,Köln,Städt. Gem. Grundschule An den Kaulen,022135582240,Köln,Schulministerium NRW Open Data,2026-02-17,Nordrhein-Westfalen,4.0
112446,02,Städt. Gem. Grundschule,Von-Bodelschwingh-Str.,,"Köln, GG Von-Bodelschwingh-Str.",3,51061,Köln,Von-Bodelschwingh-Str. 24,0221,355897310,0221,355897313,112446@schule.nrw.de,http://www.ggs-von-bodelschwinghstr.de/,1,10182,05315000,1,01.08.1973,EPSG:25832,361346,5650105,,50.985815,7.024537,Grundschule,Öffentlich,Köln,Städt. Gem. Grundschule Von-Bodelschwingh-Str.,0221355897310,Köln,Schulministerium NRW Open Data,2026-02-17,Nordrhein-Westfalen,9.0
112458,02,Städt. Gem. Grundschule,Manderscheider-Platz,,"Köln, GG Berrenratherstr.",3,50937,Köln,Berrenrather Str. 352,0221,99225930,0221,992259320,112458@schule.nrw.de,http://www.ggs-manderscheiderplatz.de/,1,10182,05315000,1,01.08.1973,EPSG:25832,353887,5642414,,50.914854,6.921425,Grundschule,Öffentlich,Köln,Städt. Gem. Grundschule Manderscheider-Platz,022199225930,Köln,Schulministerium NRW Open Data,2026-02-17,Nordrhein-Westfalen,2.0
112460,02,Städt. Gemeinschaftsgrundschule,Köln-Flittard,- Primarstufe -,"Köln, GG (Verb.) Köln-Flittard",3,51061,Köln,Am Feldrain 10,0221,93880640,0221,355050121,112460@schule.nrw.de,http://www.grundschule-feldrain.de,1,10182,05315000,1,01.08.1973,EPSG:25832,358172,5651491,,50.997497,6.978805,Grundschule,Öffentlich,Köln,Städt. Gemeinschaftsgrundschule Köln-Flittard - Primarstufe -,022193880640,Köln,Schulministerium NRW Open Data,2026-02-17,Nordrhein-Westfalen,4.0
112471,02,Städt. Gem. Grundschule,Nußbaumerstr.,,"Köln, GG Nußbaumerstraße",3,50825,Köln,Nußbaumerstr. 254-256,0221,95565212,0221,95565220,112471@schule.nrw.de,http://www.nussbaumerstrasse.de/,1,10182,05315000,1,01.08.1973,EPSG:25832,354072,5647203,,50.957938,6.922137,Grundschule,Öffentlich,Köln,Städt. Gem. Grundschule Nußbaumerstr.,022195565212,Köln,Schulministerium NRW Open Data,2026-02-17,Nordrhein-Westfalen,2.0
112483,02,Stadt Köln,Regenbogenschule,Gemeinschaftsgrundschule  -Primarstufe-,"Köln, GG Regenbogenschule",3,51069,Köln,Dellbrücker Hauptstr. 16-18,0221,93880630,0221,938806319,112483@schule.nrw.de,http://www.regenbogenschule-koeln.de/,1,10182,05315000,1,01.08.1973,EPSG:25832,364902,5648553,,50.972712,7.075747,Grundschule,Öffentlich,Köln,Stadt Köln Regenbogenschule Gemeinschaftsgrundschule  -Primarstufe-,022193880630,Köln,Schulministerium NRW Open Data,2026-02-17,Nordrhein-Westfalen,2.0
112495,02,Rheinschule,Städtische Gemeinschaftsgrundschule,Mülheimer Freiheit,"Köln, GG Mülheimer Freiheit",3,51063,Köln,Mülheimer Freiheit 99,0221,49201080,0221,492010819,112495@schule.nrw.de,http://www.ggs-muelheimerfreiheit.de,1,10182,05315000,1,01.08.1973,EPSG:25832,359565,5648028,,50.966717,6.999982,Grundschule,Öffentlich,Köln,Rheinschule Städtische Gemeinschaftsgrundschule Mülheimer Freiheit,022149201080,Köln,Schulministerium NRW Open Data,2026-02-17,Nordrhein-Westfalen,6.0
112501,02,Städt. Gem. Grundschule,Garthestr.,,"Köln, GG Garthestraße",3,50735,Köln,Garthestr. 20-24,0221,9765360,0221,97653629,112501@schule.nrw.de,http://www.ggs-riehl.de,1,10182,05315000,1,01.08.1973,EPSG:25832,357826,5647934,,50.965446,6.975269,Grundschule,Öffentlich,Köln,Städt. Gem. Grundschule Garthestr.,02219765360,Köln,Schulministerium NRW Open Data,2026-02-17,Nordrhein-Westfalen,5.0
112513,02,Städt. Gem. Grundschule,Spoerkelhof,,"Köln, GG (Verb.) Spoerkelhof",3,50769,Köln,Spoerkelhof 7,0221,35650650,0221,356506555,112513@schule.nrw.de,http://spoerkelhof-koeln.de,1,10182,05315000,1,01.08.1973,EPSG:25832,356469,5654834,,51.027118,6.953229,Grundschule,Öffentlich,Köln,Städt. Gem. Grundschule Spoerkelhof,022135650650,Köln,Schulministerium NRW Open Data,2026-02-17,Nordrhein-Westfalen,3.0
112525,02,Städt. Gem. Grundschule,Europaring,,"Köln, GG Europaring",3,51109,Köln,Europaring 51-53,0221,22256560,0221,8908799,112525@schule.nrw.de,http://www.ggseuroparing-koeln.de,1,10182,05315000,1,01.08.1973,EPSG:25832,363469,5644127,,50.932596,7.057009,Grundschule,Öffentlich,Köln,Städt. Gem. Grundschule Europaring,022122256560,Köln,Schulministerium NRW Open Data,2026-02-17,Nordrhein-Westfalen,9.0
112537,02,Stadt Köln,Gemeinschaftsgrundschule Florianschule,Primarstufe,"Köln, GG Florianschule",3,50737,Köln,Neusser Str. 605,0221,71910990,0221,719109922,112537@schule.nrw.de,http://www.florianschule.de,1,10182,05315000,1,01.08.1973,EPSG:25832,355937,5649888,,50.982537,6.947611,Grundschule,Öffentlich,Köln,Stadt Köln Gemeinschaftsgrundschule Florianschule Primarstufe,022171910990,Köln,Schulministerium NRW Open Data,2026-02-17,Nordrhein-Westfalen,5.0
112549,02,Heinzelmännchen-Schule,der Stadt Köln,Gemeinschaftsgrundschule-Primarstufe,"Köln, GG Heinzelmännchen-Schule",3,51107,Köln,Heßhofstr. 45,0221,35666340,0221,356663424,112549@schule.nrw.de,https://www.heinzelmaennchenschule.de/,1,10182,05315000,1,01.08.1973,EPSG:25832,361146,5643991,,50.930819,7.024023,Grundschule,Öffentlich,Köln,Heinzelmännchen-Schule der Stadt Köln Gemeinschaftsgrundschule-Primarstufe,022135666340,Köln,Schulministerium NRW Open Data,2026-02-17,Nordrhein-Westfalen,6.0
112562,02,Johannesschule,Städt. Gem. Grundschule mit,Kath. Bekenntniszweig - Primarstufe -,"Köln, GG (Verb.) Johannesschule",3,51061,Köln,Honschaftsstr. 312,0221,82011136,0221,82011160,112562@schule.nrw.de,http://www.schull.de/seite/217324/startseite.html,1,10182,05315000,1,01.08.1973,EPSG:25832,361881,5649746,,50.982717,7.032291,Grundschule,Öffentlich,Köln,Johannesschule Städt. Gem. Grundschule mit Kath. Bekenntniszweig - Primarstufe -,022182011136,Köln,Schulministerium NRW Open Data,2026-02-17,Nordrhein-Westfalen,5.0
112574,02,Schule Kunterbunt,Gemeinsam Lernen im Zentrum,Gemeinschaftsgrundschule der Stadt Köln,"Köln, GG Schule Kunterbunt",3,50829,Köln,Kolkrabenweg 8-10,0221,28557940,0221,28557911,112574@schule.nrw.de,http://www.schulekunterbunt.de,1,10182,05315000,1,01.08.1973,EPSG:25832,350974,5648025,,50.964532,6.87772,Grundschule,Öffentlich,Köln,Schule Kunterbunt Gemeinsam Lernen im Zentrum Gemeinschaftsgrundschule der Stadt Köln,022128557940,Köln,Schulministerium NRW Open Data,2026-02-17,Nordrhein-Westfalen,4.0
112586,02,Städt. Gem. Grundschule,Pfälzer Str.,,"Köln, GG Pfälzer Str.",3,50677,Köln,Pfälzer Str. 30-34,0221,35500770,0221,355007718,112586@schule.nrw.de,http://www.ggs-pfaelzer-strasse-koeln.de,1,10182,05315000,1,01.08.1973,EPSG:25832,355389,5643630,,50.92616,6.942295,Grundschule,Öffentlich,Köln,Städt. Gem. Grundschule Pfälzer Str.,022135500770,Köln,Schulministerium NRW Open Data,2026-02-17,Nordrhein-Westfalen,2.0
112604,02,Städt. Gem. Grundschule,Nibelungenstr.,,"Köln, GG Nibelungenstr.",3,50739,Köln,Nibelungenstr. 50a,0221,2784610,0221,2784620,112604@schule.nrw.de,http://www.ggs-nibelungenstr-koeln.de/,1,10182,05315000,1,01.08.1973,EPSG:25832,355608,5649045,,50.974878,6.943262,Grundschule,Öffentlich,Köln,Städt. Gem. Grundschule Nibelungenstr.,02212784610,Köln,Schulministerium NRW Open Data,2026-02-17,Nordrhein-Westfalen,4.0
112616,02,Städt. Gem. Grundschule,Ricarda-Huch-Str.,,"Köln, GG (Verb.) Ricarda-Huch-Straße",3,51061,Köln,Ricarda-Huch-Str. 60,0221,33770650,0221,337706530,112616@schule.nrw.de,http://ggsricardahuch.de/,1,10182,05315000,1,01.08.1973,EPSG:25832,359013,5649923,,50.983613,6.991391,Grundschule,Öffentlich,Köln,Städt. Gem. Grundschule Ricarda-Huch-Str.,022133770650,Köln,Schulministerium NRW Open Data,2026-02-17,Nordrhein-Westfalen,6.0
113694,02,Pater-Delp-Schule,Städt. Kath. Grundschule,,"Köln, KG Pater-Delp-Schule",3,50859,Köln,Im Kamp 14,0221,35650660,0221,356506655,113694@schule.nrw.de,,1,10182,05315000,1,01.08.1973,EPSG:25832,347719,5648403,,50.967077,6.831243,Grundschule,Öffentlich,Köln,Pater-Delp-Schule Städt. Kath. Grundschule,022135650660,Köln,Schulministerium NRW Open Data,2026-02-17,Nordrhein-Westfalen,1.0
113839,02,Johanniter Schule,Städt. Gem. Grundschule,,"Köln, GG Johanniter",3,50859,Köln,Kölner Str. 37,02234,9117110,02234,91171122,113839@schule.nrw.de,http://www.ggs-johanniter-schule.de/,1,10182,05315000,1,01.08.1973,EPSG:25832,347880,5646134,,50.94673,6.834482,Grundschule,Öffentlich,Köln,Johanniter Schule Städt. Gem. Grundschule,022349117110,Köln,Schulministerium NRW Open Data,2026-02-17,Nordrhein-Westfalen,1.0
113840,02,Städt. Gem. Grundschule,Albert-Schweitzer-Schule-Weiden,,"Köln, GG Albert-Schweitzer (Weiden)",3,50858,Köln,Breslauer Str. 11,02234,946480,02234,946485,113840@schule.nrw.de,http://www.ass-koeln.de,1,10182,05315000,1,01.08.1973,EPSG:25832,348564,5644948,,50.936253,6.844705,Grundschule,Öffentlich,Köln,Städt. Gem. Grundschule Albert-Schweitzer-Schule-Weiden,02234946480,Köln,Schulministerium NRW Open Data,2026-02-17,Nordrhein-Westfalen,4.0
113864,02,Ildefons-Herwegen-Schule,Städt. Gem. Grundschule,,"Köln, GG Ildefons-Herwegen-Schule",3,50858,Köln,Kirchweg 138,0221,22282030,0221,222820333,113864@schule.nrw.de,http://www.ildefons-herwegen-schule.de,1,10182,05315000,1,01.08.1973,EPSG:25832,349423,5644485,,50.932317,6.857113,Grundschule,Öffentlich,Köln,Ildefons-Herwegen-Schule Städt. Gem. Grundschule,022122282030,Köln,Schulministerium NRW Open Data,2026-02-17,Nordrhein-Westfalen,2.0
113888,02,Städt. Gem. Grundschule,Albert-Schweitzer-Schule-Weiß,,"Köln, GG Albert-Schweitzer (Weiß)",3,50999,Köln,Zum Hedelsberg 13,02236,88488331,02236,68203,113888@schule.nrw.de,http://www.albert-schweitzer-grundschule-koeln.de,1,10182,05315000,1,01.08.1973,EPSG:25832,361134,5637732,,50.874564,7.026233,Grundschule,Öffentlich,Köln,Städt. Gem. Grundschule Albert-Schweitzer-Schule-Weiß,0223688488331,Köln,Schulministerium NRW Open Data,2026-02-17,Nordrhein-Westfalen,2.0
113890,02,Anne-Frank-Schule,Städt. Gem. Grundschule,,"Köln, GG Anne-Frank-Schule",3,50997,Köln,Adlerstr. 13,02233,9944550,02233,2676,113890@schule.nrw.de,https://www.anne-frank-gs.de,1,10182,05315000,1,01.08.1973,EPSG:25832,356763,5638066,,50.876499,6.964016,Grundschule,Öffentlich,Köln,Anne-Frank-Schule Städt. Gem. Grundschule,022339944550,Köln,Schulministerium NRW Open Data,2026-02-17,Nordrhein-Westfalen,4.0
