stop_name,stop_type,transit_type,lines,latitude,longitude
Ernst-August-Schleuse (Schiff),Fähre,Fähre,73,53.52416995866022,9.981847233525595
Finkenwerder (Schiff),Fähre,Fähre,"62,64",53.53646658511248,9.878859314251779
Rüschpark (Schiff),Fähre,Fähre,"62,64",53.541570422465114,9.863306769359054
Sperrwerk Neuenfelde (Schiff),Fähre,Fähre,HBEL,53.536103513982724,9.790444757872143
Cranz (Schiff),Fähre,Fähre,HBEL,53.534742240651006,9.77955805067484
AIRBUS (Schiffsanleger),Fähre,Fähre,"62,68",53.54479005389951,9.840896869512372
Köhlbrandhöft (nur Angehörige),Fähre,Fähre,61,53.53965362153173,9.934726030653039
Waltershof,Fähre,Fähre,61,53.525632423381246,9.937198475815448
Argentinienbrücke (Schiff),Fähre,Fähre,73,53.52817196811862,9.976074168223144
Steinwerder (Schiff),Fähre,Fähre,75,53.54012786308037,9.966492768201793
Arningstraße (Schiff),Fähre,Fähre,72,53.53700573176953,9.985160473521315
Neuhof (Schiff),Fähre,Fähre,61,53.52414518000794,9.940765832029854
Theater im Hafen,Fähre,Fähre,73,53.54071747645762,9.97439345223793
Elbphilharmonie (Schiff),Fähre,Fähre,72,53.540329000724995,9.986372998208742
Teufelsbrück (Schiff),Fähre,Fähre,"62,64,68",53.54649554956411,9.862619068790138
Landungsbrücken Brücke 3,Fähre,Fähre,62,53.545098774742684,9.969772887838076
Landungsbrücken Brücke 2,Fähre,Fähre,"61,68,75",53.54498954811299,9.970593784104874
Landungsbrücken Brücke 1,Fähre,Fähre,"62,72,73",53.544896564683285,9.970913723884737
Blankenese (Schiff),Fähre,Fähre,HBEL,53.555989498847175,9.804728966029995
Bubendey-Ufer,Fähre,Fähre,"62,68",53.540187815847446,9.885338177506563
Neumühlen (Schiff),Fähre,Fähre,"62,68",53.54353190057116,9.914710661789158
Altona (Fischmarkt),Fähre,Fähre,"61,62,68",53.54400723059118,9.952197118918617
Dockland (Fischereihafen),Fähre,Fähre,"61,62,68",53.54302314925685,9.935498764543516
"Hamburg-Altona S Gl. 1,2",,S-Bahn,"S1,S11,S2,S3,S31",53.55121373830235,9.93590790275039
Friedrichsberg S,,S-Bahn,"S1,S11",53.57615921214767,10.056918252401099
"Hamburg-Altona S Gl. 3,4",,S-Bahn,"S1,S11,S2,S3,S31",53.551194547532766,9.935745049026746
Reeperbahn S,,S-Bahn,"S1,S2,S3",53.549461669400216,9.956355011000053
Königstraße S,,S-Bahn,"S1,S2,S3",53.54791708635689,9.94482998927612
"Hamburg Hbf S Gl. 1,2",,S-Bahn,"S1,S11,S2,S21,S3,S31",53.550951269345745,9.999492773803906
Harburg Rathaus S,,S-Bahn,"S3,S31",53.45988398391986,9.97985756471901
"Hamburg Hbf S Gl. 3,4",,S-Bahn,"S1,S11,S2,S21,S3,S31",53.5533089789401,10.006168320329124
Hamburg Airport (Flughafen) S,,S-Bahn,S1,53.63305756840919,10.009415071926368
Jungfernstieg S,,S-Bahn,"S1,S2,S3",53.551501800064834,9.994123303114957
Stadthausbrücke S,,S-Bahn,"S1,S2,S3",53.54911451942312,9.986008428916504
Ottensen S,,S-Bahn,"S1,S11",53.55952007966803,9.925822750030784
Tiefstack S,,S-Bahn,"S2,S21",53.53056903436202,10.065483363584116
Fischbek S,,S-Bahn,"RE5,S3",53.47394208573835,9.819558563246039
Barmbek S,,S-Bahn,"S1,S11",53.586695571248804,10.044899398895625
Alte Wöhr S,,S-Bahn,"S1,S11",53.59731046513695,10.036384740756079
Rübenkamp (City Nord) S,,S-Bahn,"S1,S11",53.605568642979705,10.035409056717542
Hasselbrook S,,S-Bahn,"S1,S11",53.56462986809882,10.05583592787302
Kornweg S,,S-Bahn,"S1,S11",53.63168070493948,10.054084057502465
Wellingsbüttel S,,S-Bahn,"S1,S11",53.641786030489705,10.081677654501455
Hammerbrook (City Süd) S,,S-Bahn,"S3,S31",53.546942112542524,10.023616788957568
Hoheneichen S,,S-Bahn,"S1,S11",53.635436005401594,10.069036849494864
Berliner Tor S1 / S11,,S-Bahn,"S2,S21",53.55388571858107,10.024071383399697
Landwehr S,,S-Bahn,"S1,S11",53.56047178663465,10.038166851315035
Rothenburgsort S,,S-Bahn,"S2,S21",53.53862770746558,10.043520576469424
Hochkamp S,,S-Bahn,"S1,S11",53.56124639094685,9.84338863540487
Poppenbüttel S,,S-Bahn,"S1,S11",53.651949526638504,10.094441400455736
Wilhelmsburg S,,S-Bahn,"S3,S31",53.49775674392922,10.00679500740264
Veddel S,,S-Bahn,"S3,S31",53.5218886700098,10.014550061597404
Landungsbrücken S,,S-Bahn,"S1,S2,S3",53.54756146123652,9.972491026042887
Wandsbeker Chaussee S,,S-Bahn,"S1,S11",53.570268197577256,10.059357910859019
Hamburg-Harburg S,,S-Bahn,"S3,S31",53.456592474267815,9.989437425486873
Heimfeld S,,S-Bahn,"S3,S31",53.4644575557923,9.964982535081985
Bahrenfeld S,,S-Bahn,"S1,S11",53.55919848430106,9.9095138767495
Othmarschen S,,S-Bahn,"S1,S11",53.55840158981384,9.886609204876592
Neugraben S,,S-Bahn,"S3,S31",53.473712566283574,9.853201976640252
Berliner Tor S2/S21,,S-Bahn,"S2,S21",53.55360000528894,10.025025133174491
Klein Flottbek S,,S-Bahn,"S1,S11",53.55819260557694,9.860060212613917
Neuwiedenthal S,,S-Bahn,"S3,S31",53.472346738977414,9.87693142979705
Diebsteich S,,S-Bahn,"A1,S21,S3",53.56889206257684,9.934471007738196
Blankenese S,,S-Bahn,"S1,S11",53.56420593389366,9.814380484721124
Iserbrook S,,S-Bahn,S1,53.577376417448356,9.81363831981141
Sülldorf S,,S-Bahn,S1,53.57962682060213,9.796496048988004
Hamburg-Bergedorf S,,S-Bahn,"S2,S21",53.490162741955075,10.207346879999863
Rissen S,,S-Bahn,S1,53.58232716899614,9.756523289405843
Elbgaustraße S,,S-Bahn,"S21,S3",53.602605081528075,9.892168868860667
Allermöhe S,,S-Bahn,"S2,S21",53.48765809399901,10.15890908322936
Sternschanze (Messe) S,,S-Bahn,"A1,S11,S21,S31",53.563925192172995,9.965245830333682
Holstenstraße S,,S-Bahn,"A1,S11,S21,S31",53.5619707822119,9.94907306229612
Nettelnburg S,,S-Bahn,"S2,S21",53.48818711215645,10.180250335318899
Langenfelde S,,S-Bahn,"A1,S21,S3",53.5802709201154,9.933731096577162
Ohlsdorf S,,S-Bahn,"S1,S11",53.6215213882146,10.034009043674146
Stellingen (Arenen) S,,S-Bahn,"A1,S21,S3",53.58969179742116,9.920177253295343
Mittlerer Landweg S,,S-Bahn,"S2,S21",53.497327593550295,10.132344524699842
Eidelstedt S,,S-Bahn,"A1,S21,S3",53.59578456594951,9.906476075312618
Billwerder-Moorfleet S,,S-Bahn,"S2,S21",53.515082066740526,10.096492685662202
Hamburg Dammtor S,,S-Bahn,"A1,S11,S21,S31",53.5612187501194,9.987854278696284
Elbbrücken S,,S-Bahn,"S3,S31",53.53424798734805,10.025329232921804
Engelbrechtweg,,Metrobus,"M3,M2,M21",53.59796623754108,9.854025156582782
Boberger Drift,,Metrobus,M12,53.51510369404558,10.170610938133152
Havighorster Redder (West),,Metrobus,M29,53.52795121422415,10.13733829029241
Bei St.Annen,,Metrobus,M6,53.54568525324841,9.997596031174906
HBF/Steintorwall,,Metrobus,"M2,M3,M6,M16,M17",53.55130589744755,10.001317587193043
Wildacker,,Metrobus,M4,53.62107832873672,9.88725425631558
"Hamburg, Holtbarg",,Metrobus,M1,53.583407160308035,9.822826646190693
Schule Marschweg,,Metrobus,M1,53.58442620210628,9.76161311962654
Pieperweg,,Metrobus,M1,53.58001893674796,9.82332178088943
Lohkamp,,Metrobus,M29,53.53211896588607,10.122329304419885
Tietzestraße,,Metrobus,M22,53.56741313324905,9.832935609877856
Stadionstraße,,Metrobus,"M3,M2",53.58070009538435,9.886183974038715
Sinstorfer Kirchweg,,Metrobus,M14,53.424195099967896,9.981617692528067
Rönneburger Kirchweg,,Metrobus,M14,53.42903339257775,9.983971462996834
Tannenberg,,Metrobus,"M3,M2",53.583951048075384,9.881935758927044
Jevenstedter Straße,,Metrobus,M21,53.6003927176665,9.874527899993788
Wulfsdal,,Metrobus,M1,53.56914199655217,9.80891810209405
Buchholzer Weg,,Metrobus,M14,53.43192240313784,9.983696342539979
Mehringweg,,Metrobus,M14,53.457131340222375,9.95921234317612
Lübbersweg,,Metrobus,M14,53.45699638854924,9.955083217388863
Strucksbarg,,Metrobus,M14,53.449882557482916,9.938486332054646
Beerentalweg,,Metrobus,M14,53.44805136530026,9.942860914704172
Kirchsteinbek,,Metrobus,"M12,M29",53.52995857831013,10.130580859711136
Rickelstraße,,Metrobus,M14,53.448321800567605,9.948983902368505
Am Frankenberg,,Metrobus,M14,53.436546513235285,9.986585237376909
Reeseberg,,Metrobus,M14,53.451187961194584,9.986997610956001
Freudenthalweg,,Metrobus,M14,53.439049995412034,9.988025258668987
Winsener Straße (Nord),,Metrobus,M14,53.44483528796479,9.99079979639943
Eißendorfer Straße (TU Hamburg),,Metrobus,M14,53.45988184267539,9.970875136584944
Dempwolffstraße,,Metrobus,M14,53.45877392476424,9.967044770693299
Luruper Chaussee (DESY),,Metrobus,"M3,M2",53.57545851442014,9.889569778828973
Sandort,,Metrobus,M21,53.575238582463676,9.846816473636895
Rugenbarg (Nord),,Metrobus,"M3,M2,M22",53.58855826142748,9.87504184114613
Fangdieckstraße,,Metrobus,M21,53.6006208136163,9.887911024475102
S Elbgaustraße,,Metrobus,M21,53.60344908420707,9.893286959734487
Recknitzstraße,,Metrobus,M21,53.59990919047653,9.864214095647686
Katzbachstraße,,Metrobus,M21,53.6008111328329,9.884381663411585
Klövensteenweg (Süd),,Metrobus,M1,53.58219599444313,9.763138466833494
Franzosenkoppel,,Metrobus,M21,53.60073248840241,9.881026964094573
Seestücken,,Metrobus,M14,53.44868942914193,9.954012753011982
Göhlbachtal,,Metrobus,M14,53.45336026929243,9.954181302708838
Trebelstraße,,Metrobus,M21,53.59915859543323,9.862131652124729
Bf. Harburg,,Metrobus,M14,53.45703760571065,9.98861645002278
Luckmoor,,Metrobus,"M2,M3",53.59690221302627,9.865289614980203
Flurstraße (Nord),,Metrobus,"M3,M2",53.593611712742586,9.87146591167656
Asklepios Westklinikum (West),,Metrobus,M1,53.58261775569117,9.774000013224502
Geranienweg,,Metrobus,"M22,M16",53.577729852514224,9.866170373902728
Eckhoffplatz (Lurup Center),,Metrobus,"M3,M2",53.59146888953915,9.873333784843467
Asklepios Westklinikum (Mitte),,Metrobus,M1,53.58240099287652,9.778704899007325
Flurstraße/Rugenbarg,,Metrobus,M22,53.58579879254323,9.867482034089658
Bahnübergang Sieversstücken,,Metrobus,M1,53.580793868535224,9.78572091995637
Achtern Styg,,Metrobus,M22,53.58167745744399,9.867070879786336
Blomkamp,,Metrobus,M16,53.57687069862834,9.860294988439243
Suurheid,,Metrobus,M1,53.58324175599552,9.768204589592186
S Blankenese,,Metrobus,"M22,M1",53.5634066119477,9.81375486128376
Jochim-Sahling-Weg,,Metrobus,M16,53.57616804181959,9.850857334751637
Rugenfeld,,Metrobus,"M16,M21",53.578608249709454,9.850048142406838
Immenbusch,,Metrobus,"M21,M16",53.585057034908786,9.853276000288139
Böttcherkamp,,Metrobus,"M16,M21",53.592946827213254,9.852293488319722
Mengestraße,,Metrobus,M13,53.50149807242874,9.990628203002203
Pinneberger Chaussee,,Metrobus,M4,53.61912171579534,9.890067657721803
Rathaus Wilhelmsburg,,Metrobus,M13,53.499372713412306,9.995884902833328
Siebenbuchen,,Metrobus,M1,53.57408123405068,9.80800482455848
Achtern Born (Kindermuseum),,Metrobus,"M16,M21",53.58704719883283,9.85197659799817
Dratelnstraße,,Metrobus,M13,53.498843903939076,9.998057279470926
Mannesallee,,Metrobus,M13,53.515378402969574,9.987047443824563
Rotenhäuser Straße (West),,Metrobus,M13,53.50426572194484,9.992195747404036
Werkcentrum Elbinsel,,Metrobus,M13,53.51945974500526,10.000196316296092
Vogelhüttendeich,,Metrobus,M13,53.51629106393004,9.992668669264072
Veringstraße (Mitte),,Metrobus,M13,53.510113404128745,9.98828671216069
Stübenplatz,,Metrobus,M13,53.51752238636169,9.986233349240058
Krankenhaus Groß-Sand,,Metrobus,M13,53.50603390811931,9.987286825935389
Grubenstieg,,Metrobus,"M21,M16",53.58281516785949,9.857322733070458
Langbargheide (Süd),,Metrobus,M22,53.594289329278496,9.891019033028602
Inselpark,,Metrobus,M13,53.4975771828807,10.004017058579095
Vorhornweg,,Metrobus,M22,53.592118452826966,9.882932985635248
Schillingsbekweg,,Metrobus,M22,53.59558249342678,9.948174510140452
Blankeneser Friedhof,,Metrobus,M1,53.57611872156484,9.801814651013078
U Hagenbecks Tierpark,,Metrobus,M22,53.59320706944659,9.943578329349942
Spanische Furt,,Metrobus,M21,53.62552194589224,9.915460267915506
Rathaus Stellingen,,Metrobus,M22,53.59211063206911,9.934750170736699
BAB-Auffahrt Stellingen,,Metrobus,M4,53.59643981479785,9.921629998780231
S Harburg Rathaus,,Metrobus,M14,53.460850991345524,9.981071011101067
Naturschutzgebiet Höltigbaum,,Metrobus,M29,53.61067098131863,10.183400437545599
Harburger Ring,,Metrobus,M14,53.45948199271704,9.983945930753137
Gewerbepark Merkur,,Metrobus,M29,53.60785579095309,10.187480767261313
S Rissen,,Metrobus,M1,53.582077152016566,9.756999465696513
Wördemanns Weg,,Metrobus,M4,53.59992831288149,9.917497539109055
A Eidelstedt Zentrum,,Metrobus,M4,53.61039724838743,9.900833750933687
S Sülldorf,,Metrobus,M1,53.57971944375223,9.795488972833216
Moorstraße,,Metrobus,M14,53.456884839319954,9.987455922084568
Sieversstücken,,Metrobus,M1,53.580340359392196,9.786969897277887
Reichsbahnstraße,,Metrobus,M4,53.602288507482655,9.91181242992469
Furtweg,,Metrobus,M21,53.60567678399282,9.899356061109037
Eidelstedter Platz,,Metrobus,"M21,M4",53.60874490479102,9.904963876243858
Heerbrook,,Metrobus,M1,53.57926506840872,9.83021680486406
Wiebischenkamp,,Metrobus,M21,53.61651506734549,9.906374725557908
Grotefendweg,,Metrobus,M1,53.56759458890411,9.827564847746247
Eidelstedter Brook,,Metrobus,M21,53.62220743922268,9.91005383246091
Schenefelder Holt,,Metrobus,M1,53.58272266023801,9.829203358816677
Am Botterbarg,,Metrobus,M1,53.57462652249549,9.834920070682685
Baumacker,,Metrobus,M4,53.61986592761055,9.895144127583992
Isfeldstraße,,Metrobus,M1,53.573380476780954,9.838614578073985
Darbovenstieg,,Metrobus,M1,53.57075023633428,9.82561491400894
Pflugacker,,Metrobus,M4,53.612965519626975,9.898888090707217
Grenzacker,,Metrobus,M4,53.619583819592954,9.891821586649959
Furchenacker,,Metrobus,M4,53.616850684970245,9.898253424061764
Dallbregen,,Metrobus,M4,53.61829104149198,9.896889948945917
Sülldorfer Landstraße,,Metrobus,M1,53.576328232250575,9.822711229882236
S Veddel,,Metrobus,M13,53.5212423216811,10.013842476258905
Sander Markt,,Metrobus,"M12,M29",53.49244789618397,10.208055705547636
Korachstraße,,Metrobus,M12,53.510535199944314,10.198247914112269
Deepenbrook (Möbel Höffner),,Metrobus,M21,53.620958245918416,9.909413819936717
Am Isfeld,,Metrobus,M22,53.572215727745416,9.840560057254683
Mühlenauweg,,Metrobus,M4,53.60394700645429,9.909440912777605
Alte Holstenstraße,,Metrobus,"M12,M29",53.49053684047689,10.208842179956024
Meriandamm,,Metrobus,"M27,M29",53.55131005979926,10.110783648441016
Lohbrügger Markt,,Metrobus,"M12,M29",53.49524123783376,10.208139135864602
Mühlenberg,,Metrobus,"M1,M22",53.56110422438513,9.82290102238821
Max-Brauer-Allee (Mitte),,Metrobus,"M20,M25,M15",53.558255564304666,9.94961952955042
S Klein Flottbek,,Metrobus,M21,53.55952234730844,9.861414415195924
Lohbrügger Kirchstraße,,Metrobus,M29,53.497510208403234,10.203638521794954
Frobeniusweg,,Metrobus,M29,53.53772596034801,10.109282452430348
S Holstenstraße,,Metrobus,"M25,M3,M20",53.562814350234824,9.9491088861874
Freizeitbad Bondenwald,,Metrobus,M5,53.626292090502666,9.936870841770888
Sternbrücke,,Metrobus,"M3,M15",53.561021093623324,9.955141196353802
Bornmühlenweg,,Metrobus,M12,53.49926017014704,10.210097759689589
Goerdelerstraße,,Metrobus,M12,53.5018824452678,10.211965762744033
U Schlump,,Metrobus,M15,53.56726820294677,9.969463034878004
Binnenfeldredder,,Metrobus,M12,53.50346328359889,10.210343986782608
Goebenstraße,,Metrobus,"M20,M25",53.57816154985941,9.962302605936486
Harnackring,,Metrobus,M12,53.508068861205814,10.210627537491346
Kottwitzstraße,,Metrobus,"M25,M20",53.58092514638261,9.965375349023468
Alsenplatz,,Metrobus,"M25,M20",53.56638167365169,9.95092804699481
Röpraredder,,Metrobus,M12,53.51008958243664,10.211223583784204
Wrangelpark,,Metrobus,M15,53.54985223454289,9.901535677013545
Perelsstraße,,Metrobus,M12,53.51049253202047,10.203339926117405
Bf. Bergedorf,,Metrobus,"M12,M29",53.48989218352114,10.20578778145249
Krieterstraße,,Metrobus,M13,53.49641781290058,10.009203250435762
Fruchtallee (Hamburg-Haus),,Metrobus,"M20,M25",53.570667235735804,9.956733920857541
Hof Bockhorst,,Metrobus,M22,53.56983071639025,9.836840122820218
Schulweg,,Metrobus,"M20,M25,M4",53.57497142549996,9.95933028612681
Zollvereinsstraße,,Metrobus,M3,53.53209963353941,10.051554528855887
Schlankreye (DKH),,Metrobus,M4,53.571639736313784,9.969273500842212
U Kellinghusenstraße,,Metrobus,"M22,M25",53.58991250455593,9.99102482397676
Kaiser-Friedrich-Ufer,,Metrobus,M4,53.57312947117318,9.963111434146654
Hochrad,,Metrobus,M15,53.55345936130787,9.872041742367264
Eimsbütteler Marktplatz,,Metrobus,M4,53.56967249732398,9.948821835743532
Baron-Voght-Straße (Mitte),,Metrobus,M21,53.55816157495176,9.864184725944362
Sellhopsweg (Albertinen-Haus),,Metrobus,M5,53.629157669848844,9.928770332061967
S Wilhelmsburg,,Metrobus,M13,53.49752974627062,10.007957690317532
Neuenfelder Straße (Schule),,Metrobus,M13,53.493706738032145,10.01212212566241
U Osterstraße,,Metrobus,M4,53.57570195208946,9.951041099812628
Röpers Weide,,Metrobus,M1,53.556269703573115,9.892981588938936
Wiesendamm,,Metrobus,"M17,M6",53.59029333179787,10.016124767039775
Flottbeker Drift,,Metrobus,M1,53.570673477417415,9.874938440704517
Apostelkirche,,Metrobus,M4,53.574984882368994,9.946022075660176
Am Stadtrand,,Metrobus,M16,53.58858491969459,10.098706073548911
Sartoriusstraße,,Metrobus,M4,53.57828336188554,9.941026605506948
Sophienterrasse,,Metrobus,M19,53.57675181868461,9.994462923205983
Högenstraße,,Metrobus,M4,53.580640807560314,9.938900887985337
Bertha-Uhl-Kamp,,Metrobus,M16,53.56491187731228,9.871108484870621
Langenfelder Damm,,Metrobus,M4,53.58230564239083,9.935954573577447
Am Husarendenkmal,,Metrobus,M23,53.56495183828549,10.076597288196503
Celsiusweg,,Metrobus,M2,53.56180115821079,9.922173807252458
Oldesloer Straße,,Metrobus,"M21,M5",53.636317748674344,9.917777306789525
Basselweg,,Metrobus,M4,53.58679551468329,9.9313527735362
Schützenstraße (Mitte),,Metrobus,M3,53.56319644925161,9.928979354855676
Volksparkstraße,,Metrobus,"M4,M22",53.59244947675687,9.929037827369568
S Stellingen,,Metrobus,M22,53.590208526770056,9.9190554585554
Mörkenstraße,,Metrobus,M16,53.54897983571489,9.947615791084724
Blücherstraße,,Metrobus,M16,53.549266219630795,9.95125389005886
Bornkampsweg,,Metrobus,"M3,M2",53.56342893564047,9.919398733679518
Kirchdorfer Straße (Museum Elbinsel),,Metrobus,M13,53.490992081685185,10.018714924103767
Von-Sauer-Straße,,Metrobus,"M2,M3",53.56552524814704,9.910010282824372
U Billstedt,,Metrobus,"M12,M29,M27,M23",53.54199225875758,10.106757049197155
Karl-Arnold-Ring,,Metrobus,M13,53.48489657493454,10.017704895314063
Kirchdorf (Süd),,Metrobus,M13,53.484765505773225,10.019491058892962
Schulterblatt,,Metrobus,M15,53.56381479884452,9.960136793812428
Rispengrasweg,,Metrobus,M29,53.5619515396888,10.125975637366672
Bernstorffstraße,,Metrobus,M3,53.55952166856933,9.961040866518438
Wagrierweg,,Metrobus,M21,53.63960336278024,9.941812095371898
Schnackenburgallee,,Metrobus,M22,53.592343493927245,9.903211476914752
Knabeweg,,Metrobus,"M21,M22,M1",53.571867549928605,9.857202101736148
Kalckreuthweg (Mitte),,Metrobus,"M1,M16",53.566059285285775,9.887314755178942
Stutsmoor,,Metrobus,M1,53.572706873271635,9.888417792701754
Hellgrundweg (Arenen),,Metrobus,M22,53.59187524203582,9.899628881827597
Langenfelder Damm (Kieler Straße),,Metrobus,M4,53.58404941229398,9.933858471662218
Eulenkrugstraße,,Metrobus,M24,53.64658064018308,10.159892180259352
Windmühlenweg,,Metrobus,M1,53.57126584068071,9.867631856660813
Böcklinstraße,,Metrobus,M1,53.5631104079669,9.887672625070385
Hafentreppe,,Metrobus,M2,53.54652397146819,9.957249944606469
Graf-Otto-Weg,,Metrobus,M5,53.64559377012796,9.912500763870554
Ziesenißstraße,,Metrobus,M23,53.56772729218173,10.074378111337252
Modering,,Metrobus,M21,53.63693422667469,9.921338704256579
Bf. Wandsbek,,Metrobus,M10,53.570630595454624,10.076119052653926
Oberer Landweg (Eisenbahnbrücke),,Metrobus,M12,53.48789051210194,10.183916483854242
Langelohstraße (Nord),,Metrobus,"M1,M21,M22",53.573064026827716,9.846041682389377
Gustav-Adolf-Straße,,Metrobus,M10,53.570824239636934,10.081896153877173
Elbe-Einkaufszentrum,,Metrobus,"M16,M1,M21,M22",53.571852086692594,9.862923444716749
Langkamp,,Metrobus,M21,53.563399027059866,9.865094795288769
U Wandsbek Markt,,Metrobus,"M11,M10,M23,M28,M8,M9",53.57232896396625,10.068648722482774
Rahel-Varnhagen-Weg,,Metrobus,M12,53.48656026026015,10.173928668572104
Flurkamp,,Metrobus,"M16,M22",53.57267688557815,9.864756115524987
S Bahrenfeld,,Metrobus,M16,53.5592099748395,9.908818812429198
Wendemuthstraße,,Metrobus,"M8,M9",53.57415950593525,10.07314398901899
Von-Haeften-Straße,,Metrobus,M12,53.48628165881407,10.16409126799765
A Burgwedel,,Metrobus,M5,53.646630320100094,9.909760602540185
Hogrevestraße,,Metrobus,M8,53.57670368935962,10.072906277588856
Bahrenfelder Marktplatz,,Metrobus,M16,53.56444553213615,9.903531366512865
Ostermeyerstraße,,Metrobus,"M21,M16",53.56896265846875,9.865368564634215
Parkstraße,,Metrobus,M15,53.552939836779586,9.88177517643311
Wagnerstraße,,Metrobus,M16,53.569995533813554,10.040847202701396
Josephstraße,,Metrobus,M11,53.572519992356625,10.079171833071527
Burgwedelkamp,,Metrobus,M5,53.64303961443314,9.915407450861855
U Wartenau,,Metrobus,"M16,M25",53.56369829795381,10.035387907049252
Hemmingstedter Weg,,Metrobus,"M16,M21",53.5666198004225,9.86610675154674
Eilbeker Weg,,Metrobus,M16,53.56851033619754,10.043517764400352
Maxstraße,,Metrobus,M16,53.57066451999876,10.048141159609422
Osdorfer Weg,,Metrobus,M16,53.565825699796626,9.895737122705182
Seumestraße,,Metrobus,M16,53.572977792090256,10.05449974329883
Reventlowstraße,,Metrobus,M15,53.55282274945925,9.892715067323484
S Nettelnburg (Südeingang),,Metrobus,M12,53.48655570713562,10.18091287268297
Flottbeker Kirche,,Metrobus,M16,53.56597538725578,9.877493864227336
S Friedrichsberg,,Metrobus,"M23,M16",53.577372547399655,10.057842023058297
Haffkruger Weg,,Metrobus,M16,53.608947431447035,10.149652556070102
Krausestraße,,Metrobus,"M23,M16",53.57962595764051,10.057447669168285
Bargteheider Straße,,Metrobus,M24,53.614271549433816,10.156609095553282
Daimlerstraße,,Metrobus,M16,53.55533989480197,9.92181390747619
Straßburger Platz,,Metrobus,"M23,M16",53.58122314826745,10.062579171023518
Agathe-Lasch-Weg,,Metrobus,M15,53.552302575039036,9.894427618411454
U Straßburger Straße,,Metrobus,"M23,M16,M28",53.582148030132636,10.06750950762888
Von-Suppé-Straße,,Metrobus,M24,53.63254273355464,10.165252245814603
Grünebergstraße,,Metrobus,M16,53.55786342457121,9.913153616577478
Frohmestraße (Mitte),,Metrobus,"M21,M5",53.63180227069841,9.921011935223898
U Alter Teichweg,,Metrobus,M28,53.58603743473645,10.06531373031966
Wandsbeker Allee,,Metrobus,"M23,M28",53.579655500522655,10.069176615537861
S Tiefstack,,Metrobus,M3,53.53065952914927,10.0644587685276
Uferstraße,,Metrobus,M25,53.56732653362293,10.029750516384576
Sieker Landstraße,,Metrobus,"M26,M29",53.60595143477607,10.168086342579759
Große Rainstraße,,Metrobus,"M16,M2",53.553465719940775,9.932147984028877
Brunsberg,,Metrobus,M5,53.59370741404381,9.968247300674237
Krausestraße (Mitte),,Metrobus,M23,53.582894871239326,10.055962171142816
Sorenkoppel,,Metrobus,"M29,M11",53.591027579477725,10.183203874980464
Wählingsweg,,Metrobus,M21,53.63151072100545,9.919642807179908
Richardstraße,,Metrobus,M16,53.568509745017884,10.038676980190576
U S Barmbek Rüsisstr,,Metrobus,"M23,M17,M7",53.587474540948776,10.044669972344314
Heckkaten,,Metrobus,M12,53.49080858968992,10.187445197575025
Friedensallee,,Metrobus,M16,53.5551532858941,9.926188991929934
Bartholomäus-Therme,,Metrobus,M18,53.57830714987057,10.027655939967325
Billstedter Mühlenweg,,Metrobus,M29,53.53402782063235,10.117242678078025
S Ottensen,,Metrobus,M2,53.55995723374818,9.926475584707786
Graf-Johann-Weg,,Metrobus,M21,53.62814096185078,9.918837049086333
Hasencleverstraße,,Metrobus,M23,53.551940132940395,10.087718743893616
Kurt-A.-Körber-Chaussee (Mitte),,Metrobus,M12,53.48919745611894,10.193370850378338
Kurt-A.-Körber-Chaussee (Ost),,Metrobus,M12,53.488818770055246,10.199568630139025
Peter-Timm-Straße,,Metrobus,M5,53.63947368872355,9.914931444769925
Rudorffweg,,Metrobus,M12,53.510198479055255,10.178364105122581
Kaltenkircher Platz,,Metrobus,M3,53.56342950083006,9.942612485388198
Schiffbeker Höhe,,Metrobus,"M29,M27,M23",53.54790500801617,10.10611269899975
Querkamp,,Metrobus,M23,53.55117906560688,10.09590123921184
Studio Hamburg,,Metrobus,"M27,M9",53.586495724243214,10.124868230004898
Sandkamp,,Metrobus,M23,53.553458386318724,10.089533627638847
Streekbrücke,,Metrobus,M19,53.582897719122045,9.993049864476664
Behnstraße,,Metrobus,M2,53.54664051419162,9.943319664800287
S Othmarschen,,Metrobus,"M15,M1",53.559910317364164,9.887385410612161
Röthmoorweg,,Metrobus,M21,53.62894587903665,9.92370538702117
Tribünenweg,,Metrobus,M23,53.55849374088913,10.080547146829437
U Horner Rennbahn,,Metrobus,M23,53.5533778377693,10.083255801018028
Maria-Louisen-Straße,,Metrobus,M19,53.587063143931935,10.003602980056607
Silcherstraße,,Metrobus,"M3,M2",53.56856520354639,9.903291739136478
Emkendorfstraße,,Metrobus,M15,53.5554703233063,9.891316058203058
Alsterkrugchaussee (Mitte),,Metrobus,"M23,M28",53.61729708354396,10.006626121487468
August-Kirch-Straße,,Metrobus,"M2,M3",53.57134507302152,9.897550452967078
Trabrennbahn Bahrenfeld,,Metrobus,"M3,M1,M2",53.573470885005136,9.89207952054891
Ebertallee,,Metrobus,M1,53.56816351101237,9.889211424290952
Eppendorfer Marktplatz,,Metrobus,"M20,M22,M25",53.59285721340351,9.988094755174517
Bf. Tonndorf,,Metrobus,"M9,M29,M27",53.586568559145995,10.123098887156194
Eppendorfer Weg (Ost),,Metrobus,M5,53.58116312877174,9.97249372538625
Gärtnerstraße,,Metrobus,"M20,M5,M25",53.58412442129847,9.969204315287769
Lokstedter Weg,,Metrobus,M22,53.5954802841805,9.98453516830967
Kraftwerk Tiefstack,,Metrobus,M3,53.526853475746876,10.0705426164756
Ernst-August-Straße,,Metrobus,M15,53.55068198642499,9.897606997900741
Öjendorfer Weg,,Metrobus,M23,53.54480092770468,10.11596635667749
Löwenstraße (Facharztklinik),,Metrobus,"M25,M20",53.58820231797926,9.973560740575039
Philosophenweg,,Metrobus,M15,53.54963141954761,9.909738593384239
Prinzenweg,,Metrobus,"M29,M27",53.55491356625922,10.113237367047637
UK Eppendorf,,Metrobus,"M20,M25",53.589970853841365,9.976338048844559
Manshardtstraße,,Metrobus,"M27,M29",53.55772249126571,10.115411212469525
Julius-Reincke-Stieg (Bethanien),,Metrobus,"M20,M25",53.59191423272356,9.983621066452272
Hohenzollernring,,Metrobus,M15,53.54910711846927,9.917704233369975
Fuchsbergredder,,Metrobus,"M27,M29",53.56108109048141,10.118644987370782
Schiffbeker Weg,,Metrobus,"M10,M27",53.571155396735634,10.124407766504865
Fischers Allee,,Metrobus,M15,53.544889488575684,9.921397931564305
Moltrechtweg,,Metrobus,"M28,M23",53.6157252607559,10.008012892123418
Veilchenweg (Ost),,Metrobus,M5,53.58864158882252,9.966572693408088
AK Altona (Eingang),,Metrobus,M1,53.55479559892621,9.89938125066811
Frickestraße,,Metrobus,M22,53.597054768135884,9.978719235417444
Rothestraße,,Metrobus,M15,53.5478939855725,9.930370664256456
Haseneck,,Metrobus,M12,53.529875092998175,10.137130764526459
Schulredder,,Metrobus,M12,53.51435194595821,10.164621203140406
Behringstraße (AK Altona),,Metrobus,M1,53.557140121937685,9.902152006474397
Aschenputtelstraße,,Metrobus,M27,53.56265791249256,10.119852973299151
Griegstraße,,Metrobus,M1,53.55431807894961,9.91037458162647
Harvestehuder Weg,,Metrobus,M19,53.58004153720684,9.993577915274573
Kreuzkirche Ottensen,,Metrobus,M1,53.553412165378475,9.918297064659297
Kattensteert,,Metrobus,M23,53.549555012969044,10.100877750692602
An der Bergkoppel,,Metrobus,M29,53.50039548439396,10.198846794484012
Bleickenallee (Kinderkrankenhaus),,Metrobus,M1,53.55180988279069,9.918239661582556
Emilie-Günther-Weg,,Metrobus,M29,53.50264561253948,10.194428861319487
U Hudtwalckerstraße,,Metrobus,"M20,M25",53.59405312176173,9.996038806653187
Große Brunnenstraße,,Metrobus,M1,53.550897100490516,9.925654209115585
Grandkoppel,,Metrobus,M29,53.504412942135694,10.189498210300128
Lattenkampstieg,,Metrobus,M19,53.598462638635965,9.99800360136693
Grandkoppel (West),,Metrobus,M29,53.506324899646636,10.183995173118962
Carl-Cohn-Straße,,Metrobus,M19,53.606804058028494,10.004971980685353
Zum Hünengrab (DESY),,Metrobus,M1,53.57206022075893,9.880012595007647
BG Klinikum Boberg,,Metrobus,M29,53.507195724333975,10.180145116036643
Stengelestraße,,Metrobus,M23,53.54923607872362,10.091221913266603
Steinbeker Marktstraße,,Metrobus,M12,53.533380159166185,10.126899223707158
Braamkamp,,Metrobus,M19,53.602136723789506,9.997830607045483
Wilhelm-Metzger-Straße,,Metrobus,M19,53.6048100992024,9.998953649301521
U Habichtstraße,,Metrobus,M28,53.594049256220025,10.050491501925423
Wilsonstraße,,Metrobus,"M9,M27",53.58721714452163,10.128992957155038
Bahrenfelder Straße,,Metrobus,M1,53.5504911873379,9.928532085111716
AK Wandsbek,,Metrobus,M10,53.56866714630126,10.091535346080995
Münterweg,,Metrobus,M29,53.52770258373326,10.14545267293317
Am Langberg,,Metrobus,M12,53.51573976735682,10.158746453043905
Bf. Altona,,Metrobus,"M15,M25,M20,M2,M16,M1",53.55177450905326,9.935046600550127
Pflegezentrum Holstenhof,,Metrobus,M27,53.56855122396395,10.122480684166806
Hindenburgstraße,,Metrobus,"M23,M19,M28",53.60873286240326,10.011431430865715
Haempten,,Metrobus,M12,53.51106754463123,10.19280276914342
Mendelstraße,,Metrobus,M12,53.5108223943353,10.189213642487287
Potsdamer Straße,,Metrobus,"M29,M11",53.58491897094187,10.148889244653422
Altonaer Poststraße,,Metrobus,M16,53.54934873414384,9.941134378513919
Hüllenkamp,,Metrobus,"M11,M29",53.58748709369051,10.155290729144824
Goethestraße,,Metrobus,M16,53.55233988409077,9.940932622064192
Stemmeshay,,Metrobus,M27,53.59268466467058,10.130242614060942
Berliner Platz,,Metrobus,"M11,M27,M29",53.58402169948946,10.142353563729568
Boberg,,Metrobus,"M12,M29",53.51531523969121,10.16724404738222
Liegnitzer Straße,,Metrobus,M27,53.58075153758673,10.139420071554444
Steinbeker Grenzdamm,,Metrobus,"M29,M12",53.524707785670095,10.149717035540917
Große Bergstraße,,Metrobus,M16,53.55094641918803,9.946821668793518
Schweidnitzer Straße,,Metrobus,M27,53.576326633409536,10.136047551280361
Brabandstraße,,Metrobus,"M28,M23",53.61294403447751,10.009254409935414
U Mümmelmannsberg,,Metrobus,"M12,M29",53.526992465322934,10.149846189980298
Bf. Tonndorf (Tonndorfer Hauptstraße),,Metrobus,"M9,M29",53.585809584955896,10.12328568746635
Jenfelder Straße,,Metrobus,"M10,M29,M27",53.57376501661595,10.135916205791744
Fischmarkt,,Metrobus,M2,53.54712771994044,9.951534379766645
Reclamstraße,,Metrobus,"M29,M12",53.53826216014798,10.110983921463383
Sydneystraße,,Metrobus,"M20,M28,M26,M23",53.60472487844468,10.017593575501625
Manilabrücke,,Metrobus,"M23,M20,M28",53.60636247971492,10.021697476377764
Feiningerstraße,,Metrobus,M12,53.52937439423926,10.148833601220376
Jenfeld-Zentrum,,Metrobus,"M10,M29,M27",53.571650910058764,10.137092447835675
Max-Klinger-Straße,,Metrobus,M12,53.53008833390283,10.145123606990623
Schule Mümmelmannsberg,,Metrobus,M12,53.529981737430504,10.14108327898929
St.Pauli Hafenstraße,,Metrobus,M2,53.54686677352429,9.96375273818317
Denksteinweg,,Metrobus,"M27,M10",53.57112064116886,10.129938352980346
U S Landungsbrücken,,Metrobus,M2,53.54652072840188,9.969755683932137
Am Hohen Feld,,Metrobus,M10,53.57085663310267,10.114456861127548
Kapstadtring,,Metrobus,"M23,M26,M28,M20",53.60613388143932,10.024976146864084
Bovestraße,,Metrobus,M10,53.569494428157654,10.085722180183904
Universität der Bundeswehr,,Metrobus,M10,53.57019889536646,10.106221615984337
Mehrenskamp,,Metrobus,M12,53.53417692030593,10.122080008059836
An der Schleemer Mühle,,Metrobus,M12,53.537478795331225,10.115067220096856
Osterkamp,,Metrobus,M10,53.56946404995426,10.100451402462516
S Reeperbahn,,Metrobus,M16,53.549233431540806,9.954827055126426
Davidstraße,,Metrobus,M16,53.54941749620128,9.961231017688256
Am Neumarkt 63,,Metrobus,M11,53.57574480526668,10.097136366017418
U St.Pauli,,Metrobus,M16,53.54967139197062,9.969736345118578
Jenfelder Allee,,Metrobus,M29,53.57512256911725,10.12668011084743
Glatzer Straße,,Metrobus,M10,53.58018202737601,10.144158321253371
Bekkamp,,Metrobus,M10,53.57569431259109,10.14314754774498
Gerichtstraße,,Metrobus,"M25,M20,M15",53.55560090478382,9.942552901121717
Bekkampsweg,,Metrobus,M10,53.574725982594614,10.138323715625036
Rathaus Altona,,Metrobus,"M2,M15",53.54827346445438,9.936398475719914
Martensallee,,Metrobus,M9,53.59030866322101,10.135405136159948
Tarpenbekstraße,,Metrobus,M22,53.59357218161051,9.984562062041139
Eppendorfer Park (UKE),,Metrobus,"M20,M25",53.590463449360314,9.978668833628616
Am Jenfelder Moor,,Metrobus,M11,53.57631422207811,10.114098077464739
Schimmelmannstraße (Mitte),,Metrobus,M11,53.571837647475085,10.105452872744397
Kuehnstraße,,Metrobus,"M11,M29",53.582688265972074,10.126171266140902
Dakarweg,,Metrobus,"M23,M26",53.603079806430934,10.024997108181148
Albert-Schweitzer-Ring,,Metrobus,M11,53.579302198139196,10.122676523989535
U Alsterdorf,,Metrobus,"M26,M19,M23,M28",53.606173977567025,10.01262724491029
Köpenicker Straße,,Metrobus,"M29,M11,M27",53.58466875181527,10.135058633151854
Oddernskamp,,Metrobus,M22,53.59912859187605,9.953041703733849
Am Pulverhof,,Metrobus,M9,53.59309208983672,10.138412475374114
Loher Straße,,Metrobus,M9,53.593456436609195,10.144664175148073
Brockdorffstraße,,Metrobus,M9,53.597412164895985,10.153445951968488
Rübezahlstraße,,Metrobus,M27,53.56466637324167,10.121313878314767
Teufelsbrück (Fähre),,Metrobus,M21,53.54836987059101,9.863259752903488
Wilhelm-Grimm-Straße,,Metrobus,M9,53.60054006806005,10.155785173336108
Paracelsusstraße,,Metrobus,M27,53.59806729253624,10.131747574838723
Nordmarkstraße,,Metrobus,M9,53.583164251893585,10.111265854873182
Händelstraße,,Metrobus,M16,53.561651647613495,9.906520739131741
Marie-Henning-Weg,,Metrobus,M12,53.48492425508115,10.155236684943954
Friedhof Tonndorf,,Metrobus,M9,53.58436084535668,10.113693563720718
S Allermöhe,,Metrobus,M12,53.48841617281483,10.158780593493036
Margit-Zinke-Straße (Nord),,Metrobus,M12,53.487272037537515,10.16374350446552
Rehkoppel,,Metrobus,M29,53.56056578634959,10.12026727734868
Karl-Rüther-Stieg,,Metrobus,M12,53.488244999398525,10.154388472329373
Hans-Rubbert-Straße,,Metrobus,M29,53.565912525434825,10.131707808431718
Fuchsbergweg,,Metrobus,M29,53.562287413189836,10.13101081509698
Otto-Grot-Straße,,Metrobus,M12,53.48758657147824,10.14814103523819
Adolf-Köster-Damm,,Metrobus,M12,53.48531921115896,10.14824809164073
Otto-Hahn-Schule Jenfeld,,Metrobus,M29,53.578746258348225,10.128113900892163
Herbert-Pardo-Weg,,Metrobus,M12,53.48500409509527,10.153029129029175
Am Hegen,,Metrobus,"M11,M29",53.58931493422518,10.179845395419598
Curt-Bär-Weg,,Metrobus,M12,53.48443091763471,10.158316013910207
Keltenweg,,Metrobus,M24,53.645330042390185,9.956986666417055
Nedderfeld (Kehre),,Metrobus,M5,53.60260663799643,9.962278071556275
Gerstenwiese,,Metrobus,M24,53.62027422415799,10.162086422377206
Wilhelm-Osterhold-Stieg,,Metrobus,M12,53.48439731693325,10.16284389369708
Von-Scheliha-Straße,,Metrobus,M12,53.48637330161527,10.162709255780763
Saseler Straße,,Metrobus,M24,53.62330619157005,10.165432598611613
Werner-Otto-Straße (Mitte),,Metrobus,M8,53.59997714488194,10.07075670170816
Berner Chaussee,,Metrobus,"M8,M17,M18",53.61975164482953,10.08202603086713
Gladowstraße,,Metrobus,M8,53.57945994538057,10.072129913003101
Siemersplatz,,Metrobus,"M5,M22",53.600094911387,9.962244968039467
Lufthansa-Basis,,Metrobus,"M23,M28",53.62108238265035,9.998005180238815
U Wandsbek-Gartenstadt,,Metrobus,M8,53.59198985438404,10.07546175337379
Walddörferstraße,,Metrobus,M8,53.579911486123,10.082324657715748
Ebeersreye,,Metrobus,M16,53.59501730157844,10.113888113090589
Friedrich-Ebert-Damm (West),,Metrobus,"M8,M16",53.584357996450926,10.077770299207423
Sperlingsweg,,Metrobus,M24,53.64538197491158,9.974514175920715
Tilsiter Straße,,Metrobus,M8,53.58865959332899,10.07783957214101
Haldesdorfer Straße,,Metrobus,M8,53.59770936101685,10.072037681559731
Hellmesbergerweg,,Metrobus,M24,53.63132929355438,10.179522409788733
Werner-Otto-Straße,,Metrobus,"M18,M8",53.60069095572216,10.068397301079646
Rahnstraße,,Metrobus,"M8,M18",53.60518797407552,10.07113626250583
Steilshooper Allee,,Metrobus,"M17,M8,M18,M26",53.6089868797108,10.074320512376755
Bramfelder Dorfplatz,,Metrobus,"M17,M8,M18",53.61423577122151,10.077059478661496
Heukoppel,,Metrobus,"M18,M8",53.61124711126065,10.079594071958779
Warnckesweg,,Metrobus,M23,53.610073549419205,9.975187930064482
Ellernreihe (Mitte),,Metrobus,"M26,M8,M18",53.608341879923024,10.07923486971307
Niendorfer Straße,,Metrobus,"M23,M5",53.60994899479225,9.957725460893037
Spreenende,,Metrobus,M23,53.61248409125079,9.973617762819147
Am Licentiatenberg,,Metrobus,M23,53.61446330773828,9.983817953364186
Eulenkamp,,Metrobus,M16,53.58333316075731,10.07152672142607
Stavenhagenstraße,,Metrobus,M23,53.61026708042803,9.968776137951924
Stephanstraße,,Metrobus,M16,53.585620250094856,10.085434101085479
Helbingtwiete,,Metrobus,M16,53.586881650599665,10.092014024962214
Sylter Weg,,Metrobus,M16,53.59013900646658,10.105527672129583
Rentenversicherung Nord,,Metrobus,M16,53.59263632407624,10.108840562737242
Nedderfeld,,Metrobus,M5,53.60209661455275,9.961749566894413
Pulverhofsweg,,Metrobus,M16,53.59949260843257,10.124485253795173
Eckerkoppel,,Metrobus,M16,53.60048120732515,10.118112707268008
Offakamp,,Metrobus,M22,53.59846715830459,9.970463023854704
Berufsförderungswerk Hamburg,,Metrobus,M27,53.61062552856322,10.11543290406897
Rahlstedter Weg (Mitte),,Metrobus,"M26,M27",53.603517816399695,10.127575072529165
Pflegezentrum Farmsen,,Metrobus,M27,53.61211540745716,10.114641559598587
Behrmannplatz,,Metrobus,M22,53.59941784284703,9.958567976915951
Neusurenland,,Metrobus,M27,53.61616094672687,10.11451575353852
U Farmsen,,Metrobus,"M26,M27",53.60706595953263,10.11718342676901
Stuhtsweg,,Metrobus,M27,53.620581546887664,10.113160686550428
Vogt-Cordes-Damm,,Metrobus,"M23,M5",53.61520636796679,9.951309517479736
Bindfeldweg,,Metrobus,M5,53.62263706851199,9.942899777297555
U Niendorf Markt,,Metrobus,"M5,M23,M24",53.61950962457786,9.951387736377391
Alter Zollweg,,Metrobus,M16,53.60825947744074,10.136768442290848
Timmendorfer Straße,,Metrobus,M16,53.603689860458424,10.130253050794257
Goldbekplatz,,Metrobus,"M17,M25,M6",53.583730336007775,10.010443013645725
Scharbeutzer Straße,,Metrobus,M26,53.601248159161024,10.132602429545768
Ziethenstraße,,Metrobus,M11,53.5769346949511,10.101788599606655
Fuhlsbütteler Weg,,Metrobus,M24,53.62290430632369,9.956067362920487
Kohövedstraße,,Metrobus,M16,53.60843210043611,10.144889451582122
Birkenallee,,Metrobus,M26,53.60067728458289,10.137485758884157
Holzmühlenstraße,,Metrobus,M9,53.577029831156075,10.083684316007805
Eichtalstraße,,Metrobus,M9,53.57779629707029,10.08853045136809
Kurfürstenstraße,,Metrobus,M9,53.57940977394472,10.098141886456235
Ölmühlenweg (Süd),,Metrobus,M9,53.58070684682964,10.101304986441887
Birtstraße,,Metrobus,M11,53.57574565909094,10.093124460424118
Heinrich-Helbing-Straße,,Metrobus,M18,53.594140490915564,10.057753160185616
Kedenburgstraße,,Metrobus,M11,53.57609837130348,10.087783999012519
Bauernrosenweg,,Metrobus,M18,53.59838085388842,10.065465493367638
Karlshöhe,,Metrobus,"M17,M27",53.623621107241824,10.111373526393626
Tegelweg,,Metrobus,M26,53.60628151683715,10.106608213630299
Herzog-Bruno-Weg,,Metrobus,M24,53.624921292319804,9.947565839674432
Haldesdorfer Straße (Nord),,Metrobus,M26,53.60667419855479,10.088556422240787
Wendlohstraße,,Metrobus,M24,53.63039058358091,9.939613768147975
Heselstücken,,Metrobus,M23,53.61879559014665,10.000243327007228
Vietinghoffweg,,Metrobus,M24,53.63365469108928,9.94123982366864
An der Lohe,,Metrobus,M24,53.620527598668325,9.951388474963757
Graf-Anton-Weg,,Metrobus,M24,53.627801357066964,9.944995531281126
Herthastraße,,Metrobus,"M8,M17,M18",53.610561597824855,10.074267301940507
Gottschalkweg,,Metrobus,M24,53.63646561226597,9.943232076581921
Bramfelder Dorfplatz (Heukoppel),,Metrobus,"M18,M8",53.61285948781229,10.077188770412688
Vielohweg (Mitte),,Metrobus,"M24,M21",53.638708196599126,9.945306472023677
U Niendorf Nord,,Metrobus,"M21,M24",53.64032071459118,9.949478872209903
Großlohe,,Metrobus,M26,53.60293212648706,10.18119684990858
Hoffmannstieg,,Metrobus,M26,53.60370768225182,10.17911318884924
Prehnsweg,,Metrobus,M26,53.60486103541719,10.17655383456321
Bekstück,,Metrobus,M23,53.60955765369934,9.96506858591487
Schweriner Straße,,Metrobus,"M29,M26",53.60514129382021,10.160900611106491
Pommernweg,,Metrobus,M24,53.64216686120971,9.955585789682932
Geesthachter Weg,,Metrobus,"M29,M11",53.58848950811892,10.172293923610514
Kielkoppelstraße,,Metrobus,"M11,M29",53.58905934544144,10.166657036960935
Lademannbogen,,Metrobus,M24,53.6481115710141,10.036547763579575
Kinderkrankenhaus Wilhelmstift,,Metrobus,"M29,M11",53.58895715291381,10.162195855863748
Am Ohlendorffturm,,Metrobus,M29,53.594999834203854,10.169749131299815
Eggerskamp,,Metrobus,M24,53.611914570638646,10.156441694150935
Paeplowstieg,,Metrobus,M23,53.61621493053405,9.9875731628214
Amtsstraße,,Metrobus,M29,53.59666242822089,10.16276255084796
Buchwaldstraße,,Metrobus,M29,53.59928948191355,10.161607177039533
Altes Rathaus Rahlstedt,,Metrobus,M29,53.602742597080955,10.157290273206147
Pahlblöckensstieg,,Metrobus,M29,53.60645274282,10.170478648540984
S Poppenbüttel (Stormarnplatz),,Metrobus,M8,53.65157495261093,10.0938791237758
Immenseeweg,,Metrobus,M29,53.59441836975802,10.17502848756712
Lufthansa-Basis (Haupteingang),,Metrobus,"M23,M28",53.62145985774709,9.99735214080456
Werfelring,,Metrobus,M27,53.62859053833803,10.116732996886613
Brunskamp,,Metrobus,M29,53.59248569765043,10.181436220052335
Rahlstedt Center,,Metrobus,M29,53.60376947353925,10.157952107711644
Hohnerkamp (Mitte),,Metrobus,M18,53.62437817146397,10.090530537146385
Ermlandweg,,Metrobus,M24,53.649183628804664,9.992757880729595
Liliencronpark,,Metrobus,M26,53.60167739381225,10.15298189328594
Bf. Rahlstedt (Doberaner Weg),,Metrobus,"M24,M16",53.60531322058129,10.153041907946921
Obenhauptstraße,,Metrobus,M28,53.619990866459055,10.007497611742304
U Meiendorfer Weg,,Metrobus,M24,53.63875302320131,10.157062717833185
Wrangelkoppel,,Metrobus,M24,53.648766199722814,9.995958189384728
Bf. Rahlstedt (Amtsstraße),,Metrobus,"M9,M26,M29",53.60329177671084,10.153879050726925
Samlandweg,,Metrobus,M24,53.64914772170205,10.00281237987666
Rittmerskamp,,Metrobus,M24,53.648977278680064,10.007410443194088
Speersort,,Metrobus,"M17,M6,M4,M16",53.54929257359876,9.997049874517135
U Langenhorn Markt (Krohnstieg),,Metrobus,M24,53.64947688234061,10.018117065139021
Wildschwanbrook,,Metrobus,M24,53.627051309382956,10.1698771564416
Zeisehallen,,Metrobus,M16,53.554369948525434,9.926846034645834
Skaldenweg,,Metrobus,M24,53.63279300295502,10.179157760703527
S Wellingsbüttel,,Metrobus,M27,53.64076286864439,10.081298650072895
Wildschwanbrook (Mitte),,Metrobus,M24,53.62969570716889,10.175160490300982
Hohenesch,,Metrobus,"M16,M2",53.5547570423695,9.928651130951451
Rambachstraße,,Metrobus,M2,53.54527849192702,9.97597675614922
U Sierichstraße,,Metrobus,"M25,M19",53.59072290965384,10.002701305721255
Spitzbergenweg,,Metrobus,M24,53.62838547515268,10.165914322090595
S Alte Wöhr,,Metrobus,M23,53.59731585378777,10.037508478890604
Ericusspitze,,Metrobus,M2,53.54622484858615,10.002256333473042
Am Schulwald,,Metrobus,M24,53.65027949524909,10.025576165078437
Saselheider Weg,,Metrobus,M17,53.627734563272945,10.134236850133162
Lienaustraße,,Metrobus,M17,53.62697398543237,10.12435022460277
Singapurstraße,,Metrobus,"M2,M6",53.54309179751061,9.996584434031323
Roter Hahn,,Metrobus,M17,53.62628237141712,10.117288020424333
Sandkule,,Metrobus,"M16,M24",53.60692472757722,10.148789510707939
Glashütter Landstraße,,Metrobus,M24,53.6476539361171,10.041576107678765
Am Kaiserkai (Elbphilharmonie),,Metrobus,M2,53.54319635949891,9.986013707156822
Brillkamp,,Metrobus,M24,53.64554511338445,10.048834406166566
Hohenkamp,,Metrobus,M16,53.60564922993044,10.145745756104539
U Berne (Berner Heerweg),,Metrobus,M17,53.62648520351317,10.137361935853388
Kienholt,,Metrobus,M17,53.62238359997614,10.10566325173978
Domstraße,,Metrobus,"M17,M16",53.5482318251092,9.995509605598249
Offenbachweg,,Metrobus,M24,53.63136411377968,10.174491638725328
Fahrenkrön,,Metrobus,M17,53.61905395890427,10.095505224612618
Heestweg,,Metrobus,"M16,M24",53.602607897242905,10.149821425820441
Buddenbrookweg,,Metrobus,M27,53.62628107807909,10.115739059517676
Auf dem Sande (Speicherstadt),,Metrobus,M6,53.54426535138173,9.991046031502473
Hohnerkamp,,Metrobus,M17,53.61837693137348,10.090246010810462
Thomas-Mann-Straße,,Metrobus,M27,53.627886157382385,10.114400752156415
Forum Gymnasium Rahlstedt,,Metrobus,M26,53.6013144610399,10.141823348361896
Lapplandring,,Metrobus,M24,53.629965257674606,10.16957351502622
U Baumwall,,Metrobus,M2,53.54466943961316,9.98083642808455
Am Sandtorkai,,Metrobus,"M2,M6",53.543851302490815,9.990151013348344
Paulinenstraße,,Metrobus,M17,53.55513195581942,9.964280293924576
Waldingstraße,,Metrobus,M27,53.635058136307464,10.102825178673026
Seumestraße (Eilenau),,Metrobus,M16,53.574442487396425,10.05274887066504
Waterblöckenwiese,,Metrobus,M29,53.60841820147205,10.175867881717874
Bundesstraße,,Metrobus,"M15,M4",53.56972465571862,9.974729545514473
Quittenweg,,Metrobus,M27,53.62702941471933,10.110175754220466
Heckende,,Metrobus,M29,53.60702065372932,10.175015150983254
Grootmoor,,Metrobus,M27,53.632607099002136,10.105537406360593
Grindelhof,,Metrobus,"M4,M5",53.56662982807626,9.981124940189583
Neuer Höltigbaum,,Metrobus,M29,53.608486752934,10.185746136989689
Neurahlstedter Graben,,Metrobus,M29,53.609549253458965,10.178097996190257
Mundsburger Brücke,,Metrobus,"M6,M18,M17",53.56510283637329,10.020164332086543
Vielohwisch,,Metrobus,M21,53.638573995834555,9.934118787053004
U Hoheluftbrücke,,Metrobus,M5,53.577465759941774,9.976897515408982
Averhoffstraße,,Metrobus,"M17,M6",53.57073272304264,10.016673787286551
Bezirksamt Eimsbüttel,,Metrobus,"M5,M15,M4",53.57254916656158,9.978247215292727
Zimmerstraße,,Metrobus,"M17,M6",53.57491292830771,10.015946265799954
U Hallerstraße,,Metrobus,M15,53.572391880986245,9.989486417625637
Hans-Henny-Jahnn-Weg,,Metrobus,"M25,M6,M17",53.578375182399675,10.015891433526857
Lauensteinstraße,,Metrobus,M23,53.59988186883974,10.037466712327703
Gertigstraße,,Metrobus,"M17,M25,M6",53.58186793144495,10.012722831915692
Alsterchaussee,,Metrobus,"M15,M19",53.57288767834599,9.99374534201648
Böttgerstraße,,Metrobus,M19,53.56830841661165,9.994896459587952
Dorotheenstraße,,Metrobus,M25,53.58697122184776,10.005704332878738
Fontenay,,Metrobus,M19,53.563789455234534,9.994265970272076
Bf. Dammtor,,Metrobus,"M4,M5",53.560431408713534,9.989371791981108
Semperstraße,,Metrobus,"M17,M6",53.587170118350095,10.017633583513463
Harburger Chaussee,,Metrobus,M13,53.52042947930637,10.00816904884404
Universität/Staatsbibliothek,,Metrobus,"M5,M4",53.564251385923754,9.984897009804676
U S Jungfernstieg,,Metrobus,"M4,M5,M19",53.55253861374899,9.992727890568846
U Borgweg,,Metrobus,"M17,M6",53.59107382401669,10.015230527771696
Überseering (West),,Metrobus,"M20,M26",53.60102624421019,10.017549648906076
Neuer Pferdemarkt,,Metrobus,M3,53.55817927650554,9.96404320175908
Winterhuder Marktplatz,,Metrobus,"M25,M20,M19",53.594843144035124,9.998842029150962
U Feldstraße,,Metrobus,"M3,M17",53.55731116686295,9.970216336287237
HBF/Mönckebergstraße,,Metrobus,"M19,M5,M3",53.551159620714955,10.004222564739838
Nüßlerkamp,,Metrobus,M18,53.623064095238156,10.0858457994171
Ohlsdorfer Straße (Planetarium),,Metrobus,M20,53.59974770571232,10.007101526731697
Kressenweg,,Metrobus,M22,53.58630181502309,9.872457699983467
Sievekingplatz,,Metrobus,M3,53.55620452721436,9.978300370687421
Saselbekstraße,,Metrobus,M24,53.65630558730361,10.134616586913728
Jahnring (Mitte),,Metrobus,M20,53.600166601411544,10.013827666938594
U Stephansplatz,,Metrobus,"M5,M4,M19",53.55884887661204,9.987727819801847
U Gänsemarkt,,Metrobus,"M19,M5,M4",53.55549390879221,9.98785870665231
New-York-Ring,,Metrobus,"M26,M20",53.60200996740873,10.017548080572709
S Rübenkamp,,Metrobus,"M26,M20,M28",53.60784228098317,10.033218121984266
Parkallee,,Metrobus,M15,53.5724141078808,9.982604064639146
Pfeilshofer Weg,,Metrobus,M8,53.64197840328108,10.096869781771574
Axel-Springer-Platz,,Metrobus,M3,53.55278236276814,9.984327168561377
Hebebrandstraße,,Metrobus,"M7,M26,M28",53.60782941950858,10.038621281891016
Carl-Petersen-Straße,,Metrobus,M25,53.55852222670802,10.039505031150137
Grenzkehre,,Metrobus,M14,53.41574434190644,9.98427251174161
Johannes-Brahms-Platz,,Metrobus,M3,53.55485092643287,9.980295509763312
Frahmredder,,Metrobus,M8,53.647423409632005,10.101598482156936
Asklepios Westklinikum (Ost),,Metrobus,M1,53.58153213093995,9.78330615551421
Steinwegel,,Metrobus,M24,53.65490125238372,10.12512332285963
AK Barmbek,,Metrobus,"M7,M28",53.6051903048928,10.039594824833507
Brandstwiete,,Metrobus,"M4,M6",53.547160278039186,9.997266410101151
Hartzloh,,Metrobus,"M7,M28",53.60216059314304,10.041240326658675
Michaeliskirche,,Metrobus,"M17,M16",53.54923038444953,9.977631519264389
Am Damm,,Metrobus,M8,53.63124277608295,10.088543640852064
Ausschläger Weg (Verkehrsamt),,Metrobus,M25,53.54790087606697,10.037511359584116
Neue Wöhr,,Metrobus,"M7,M28",53.59870561984306,10.041579193157874
Plattenfoort,,Metrobus,M17,53.62830493640089,10.138158824949185
U Rödingsmarkt (Großer Burstah),,Metrobus,M3,53.548430423903305,9.989327667873226
Rolfinckstraße,,Metrobus,"M8,M27",53.63942660762746,10.094901719968355
Hermann-Kauffmann-Straße,,Metrobus,M7,53.5952536739876,10.043763889180001
Am Stühm-Süd,,Metrobus,M18,53.62794199316266,10.099470062110594
Rathausmarkt,,Metrobus,"M3,M4,M5,M19",53.55012955579063,9.995385579146332
U S Barmbek Wiesendamm,,Metrobus,"M17,M18",53.586677652431526,10.044124553131796
Ruscheweyhstraße,,Metrobus,M24,53.650120366082035,10.06081661196739
Hellbrookstraße,,Metrobus,"M7,M17",53.59055022474394,10.045235770767748
Hültkoppel,,Metrobus,M24,53.653151197594084,10.141328668706246
Gerhart-Hauptmann-Platz,,Metrobus,"M3,M19,M5",53.54986665360938,9.998885542190989
U Saarlandstraße,,Metrobus,"M17,M18",53.58767622794933,10.033297570754169
Richardstraße (Eilbeker Weg),,Metrobus,M16,53.56729277851856,10.041372372506109
Großheidestraße,,Metrobus,M17,53.58576999624584,10.027800596704457
Jarrestraße (Kampnagel),,Metrobus,M17,53.58365108952061,10.020760803910212
Gumbinner Kehre,,Metrobus,M18,53.62600666037691,10.09162965899828
Süderstraße,,Metrobus,M25,53.545034650848194,10.02999773388329
Beethovenstraße,,Metrobus,"M25,M18",53.57567044568189,10.020976312690385
Schumannstraße,,Metrobus,M18,53.57650397412802,10.024670197554677
U Mundsburg,,Metrobus,"M25,M18",53.570476168426,10.027645392658624
Königsberger Straße,,Metrobus,"M8,M18",53.62356159506745,10.085863362837712
Harzensweg,,Metrobus,M17,53.591350864288465,10.049596079404157
Krohnstiegtunnel,,Metrobus,M24,53.65011985285698,9.988224365887076
U Hamburger Straße,,Metrobus,M18,53.5756408871229,10.035915640891927
Maisredder,,Metrobus,M8,53.62728200463798,10.085803925126932
S Hammerbrook (Süd),,Metrobus,M25,53.545765848986136,10.024657530700916
U Habichtstraße (Steilshooper Straße),,Metrobus,M17,53.594741564672304,10.050048770039666
Biedermannplatz,,Metrobus,M18,53.58001475743188,10.032478759856996
Brucknerstraße (Arbeitsgerichte),,Metrobus,M18,53.583625240474824,10.033044030450423
Flachsland,,Metrobus,M18,53.5846125650093,10.04706242615798
HBF/Steintordamm,,Metrobus,"M5,M2,M17,M16,M19,M6",53.55127665283107,10.001458754350132
Wachtelstraße,,Metrobus,M18,53.588427013912,10.052848692359705
Habichtsplatz,,Metrobus,M28,53.596282003801115,10.046099194699922
Langenfort,,Metrobus,M17,53.599549791591095,10.0503958541824
Richeystraße,,Metrobus,M17,53.60178160407656,10.050467197959831
Schwarzer Weg,,Metrobus,M17,53.60681326292501,10.055931737002302
Alfred-Mahlau-Weg,,Metrobus,"M7,M26",53.61018352047932,10.055006935565684
Eichenlohweg,,Metrobus,"M26,M7",53.60842210888468,10.043493978602536
Kurt-Schumacher-Allee,,Metrobus,M2,53.551801799555285,10.016279416094509
Thiedingreihe,,Metrobus,M3,53.53374683408401,10.045480197319169
Gründgensstraße (West),,Metrobus,"M26,M7",53.61204190753014,10.046987185937734
Hebbelstraße,,Metrobus,M25,53.577439132799604,10.019444020617456
Jakobikirchhof,,Metrobus,"M6,M16,M17",53.54945734289971,10.00071171322855
Fritz-Flinte-Ring,,Metrobus,"M7,M26",53.61125834350823,10.051121190032239
Ausschläger Allee (Kfz-Verwahrstelle),,Metrobus,M3,53.53115636319498,10.060597671323125
Einkaufszentrum Steilshoop,,Metrobus,"M7,M26",53.61092052639491,10.058897495261222
U Burgstraße (Burgstraße),,Metrobus,M25,53.55646392866043,10.039911035283062
Saseler Markt,,Metrobus,M24,53.65350830916148,10.111373766869477
U Volksdorf,,Metrobus,M24,53.65077123203236,10.162863272559832
Am Hehsel,,Metrobus,M24,53.64673056009186,10.055869536263023
Erich-Ziegel-Ring,,Metrobus,M7,53.61308664632274,10.063576986029023
Gründgensstraße (Ost),,Metrobus,M7,53.61411310534592,10.064149563768739
AK St.Georg,,Metrobus,"M6,M18,M17",53.5595336017718,10.015468466329263
Sachsenstraße,,Metrobus,M25,53.54671872675363,10.02567261619051
Billhorner Deich,,Metrobus,M3,53.53411430813507,10.041831157491718
Fabriciusstraße,,Metrobus,"M17,M26",53.60871361915923,10.067707803733818
Gustav-Seitz-Weg,,Metrobus,"M26,M17",53.608922090871964,10.062746400898915
Normannenweg,,Metrobus,M25,53.55230399500816,10.034392587101982
Graumannsweg,,Metrobus,"M6,M17,M18",53.56285998424121,10.019027110391349
Gurlittstraße,,Metrobus,"M17,M18,M6",53.55684708625467,10.010675579784989
HBF/Kirchenallee,,Metrobus,"M17,M6,M18",53.552435909365634,10.007779396287084
Burmesterstraße,,Metrobus,"M18,M17",53.58661079492933,10.037363295768161
Genslerstraße,,Metrobus,M23,53.59280203076167,10.03975646386215
Böckmannstraße,,Metrobus,M16,53.55409938995021,10.01519598932088
Maxstraße (Eilenau),,Metrobus,M16,53.57265047497485,10.047440210056312
Rothenburgsorter Marktplatz,,Metrobus,M3,53.53540284778515,10.037962166992887
Wendenstraße (Mitte),,Metrobus,M25,53.54990736132891,10.037152473434807
Op de Elg,,Metrobus,M24,53.65474453047444,10.11734977420137
U Lohmühlenstraße,,Metrobus,M16,53.55669402897108,10.021992119611676
Habichtstraße (Mitte),,Metrobus,"M28,M18",53.59131755305422,10.054433997063848
U Lübecker Straße,,Metrobus,M16,53.55847455967312,10.024817865868766
Rüstweg,,Metrobus,M14,53.4176650408614,9.983443166152751
U Horner Rennbahn (Hermannstal),,Metrobus,M23,53.554088572307556,10.084024823813873
Ringstraße,,Metrobus,M24,53.63547055575437,10.162229497054664
S Landwehr (Ramazan-Avci-Platz),,Metrobus,M25,53.56126396745756,10.037461558938727
Rahlstedter Kamp,,Metrobus,M29,53.60831057434201,10.17428113395185
Borchertring,,Metrobus,M7,53.61492137002116,10.065831447359358
Stadtbahnstraße,,Metrobus,M24,53.6530086619522,10.10742743102953
Lämmersieth (Mitte),,Metrobus,M23,53.58517409662647,10.053421791795007
Lämmersieth (Nord),,Metrobus,M28,53.588423592596804,10.060202827603847
Rothenburgstraße,,Metrobus,M3,53.531923332086386,10.055736607896028
U St.Pauli (Millerntorplatz),,Metrobus,M17,53.55044405964708,9.970221003352723
Gut Karlshöhe,,Metrobus,M27,53.629327349208005,10.106752234694634
Bahrenfelder Straße,,Metrobus,M1,53.54956489378918,9.930640430328806
Billhorner Mühlenweg,,Metrobus,M3,53.53701684405746,10.033240007228
Große Brunnenstraße (Süd),,Metrobus,M1,53.55025934314999,9.925309140164998
U Steinstraße (Deichtorplatz),,Metrobus,"M3,M2",53.54957421269818,10.005669188092968
Spaldingstraße,,Metrobus,M3,53.548376309446624,10.011567686644108
Große Rainstraße (Süd),,Metrobus,"M2,M16",53.55254323270388,9.93210998947019
Lippeltstraße,,Metrobus,M3,53.54593887273937,10.017881366594446
Nagelsweg,,Metrobus,M3,53.54375105339251,10.022418026257712
Geranienweg (Blomkamp),,Metrobus,M16,53.57784059575868,9.864296644789945
Billhorner Brückenstraße,,Metrobus,M3,53.53946877608266,10.031766402467643
Norbert-Schmid-Platz,,Metrobus,M24,53.65333693881301,10.062637314789551
Billhorner Röhrendamm,,Metrobus,M3,53.53790403484749,10.031271223575002
Eidelstedter Platz (Ring 3),,Metrobus,"M21,M4",53.60888272151387,9.904908444383889
Halenreie,,Metrobus,M24,53.65309965227576,10.16070933376075
U Schlump (Ost),,Metrobus,M4,53.56790711353842,9.970233618763428
Rögenfeld,,Metrobus,M24,53.65368519976119,10.151544767060429
Weidenallee,,Metrobus,M15,53.565353396487076,9.964770387887079
Alstertal-Einkaufszentrum,,Metrobus,M24,53.65615652029059,10.092564721275108
Niendorfer Straße,,Metrobus,"M23,M5",53.6101533272884,9.955810969204224
S Poppenbüttel (Wentzelplatz),,Metrobus,M24,53.652285601694324,10.093266975916526
Alte Landstraße (Nord),,Metrobus,M24,53.653198504977105,10.077291895645432
Schulbergredder,,Metrobus,M24,53.65699697521913,10.085228306933631
Goldröschenweg,,Metrobus,M24,53.65135807618199,10.067560310894388
Borgfelder Straße,,Metrobus,M25,53.554218030284964,10.032922097048694
U S Berliner Tor (Beim Strohhause),,Metrobus,M2,53.553989136314726,10.024427163123622
Spaldingstraße (Süd),,Metrobus,M3,53.54745261214952,10.009653135437201
Hauptbahnhof/ZOB,,Metrobus,"M16,M18,M19,M5,M2",53.55219005680057,10.009040765837431
Bf. Dammtor (Mittelweg),,Metrobus,M19,53.56015156825919,9.990147779035365
Lübecker Straße U1,,U-Bahn,U1,53.560281005554366,10.027601878081926
Lohmühlenstraße U,,U-Bahn,U1,53.556315979222276,10.020099230404334
Dehnhaide U,,U-Bahn,U3,53.57817026279862,10.040424483017903
Burgstraße U,,U-Bahn,"U2,U4",53.55708798231539,10.04169347174373
"Hamburg Hbf Nord U2,U4",,U-Bahn,"U2,U4",53.55127242658445,10.001458329448667
Hamburg Hbf Süd U1,,U-Bahn,U1,53.550947043411746,9.99947407797849
Steinstraße U,,U-Bahn,U1,53.550347073307336,10.005344725747657
Hamburg Hbf Süd U3,,U-Bahn,U3,53.551653079818124,10.008827711747315
Straßburger Straße U,,U-Bahn,U1,53.58204379514563,10.067042783862178
Alter Teichweg U,,U-Bahn,U1,53.58536218637885,10.064373813711033
St.Pauli U,,U-Bahn,U3,53.54965517809219,9.970479259719035
Stephansplatz (Oper/CCH) U,,U-Bahn,U1,53.55924945924822,9.987707914536823
Jungfernstieg U1,,U-Bahn,U1,53.55150319234884,9.9943466703364
Berliner Tor U Ri. Ost,,U-Bahn,"U2,U3,U4",53.553691936886835,10.022849236711904
Rathaus U,,U-Bahn,U3,53.54973393868417,9.994330983410858
Berliner Tor U Ri. West,,U-Bahn,"U2,U3,U4",53.55394361815543,10.023175054042115
Rödingsmarkt U,,U-Bahn,U3,53.54766043271738,9.986367038620793
Lübecker Straße U3,,U-Bahn,U3,53.5601862041941,10.02798896062599
Baumwall U,,U-Bahn,U3,53.545190319735354,9.983008973310849
Messehallen U,,U-Bahn,U2,53.558255860516425,9.97920704850476
Gänsemarkt(Oper) U,,U-Bahn,U2,53.55678750415823,9.987239367290632
Osterstraße U,,U-Bahn,U2,53.57642404372109,9.951044196869328
Emilienstraße U,,U-Bahn,U2,53.57128873585758,9.952255719660306
Ohlstedt U,,U-Bahn,U1,53.69477591590785,10.138253751572293
Farmsen U,,U-Bahn,U1,53.606836481303745,10.117482953702014
Trabrennbahn U,,U-Bahn,U1,53.596983995496984,10.101268977176245
Wartenau U,,U-Bahn,U1,53.5635212016531,10.035483361777569
Wandsbek-Gartenstadt U Süd,,U-Bahn,"U1,U3",53.59143906433863,10.07377752438864
Billstedt U,,U-Bahn,"U2,U4",53.5424049610037,10.106887981123647
Oldenfelde U,,U-Bahn,U1,53.61835381966391,10.129297271518412
Barmbek U (Nord),,U-Bahn,U3,53.586335313382776,10.045029709797763
Berne U,,U-Bahn,U1,53.62738552214375,10.14099869362745
Legienstraße U,,U-Bahn,"U2,U4",53.54763680231111,10.095429780646484
Barmbek U (Süd),,U-Bahn,U3,53.58648880603346,10.044885518585406
Habichtstraße U,,U-Bahn,U3,53.59318255969727,10.051529151472376
Horner Rennbahn U,,U-Bahn,"U2,U4",53.55338173692123,10.082374750121117
Hamburger Straße U,,U-Bahn,U3,53.57545462142886,10.037024136155745
Mundsburg U,,U-Bahn,U3,53.56965426822403,10.026170081002082
Rauhes Haus U,,U-Bahn,"U2,U4",53.55444046972631,10.064972885293724
Volksdorf U,,U-Bahn,U1,53.650883311566375,10.164348714198132
Fuhlsbüttel U,,U-Bahn,U1,53.632492579166005,10.026374849920161
Borgweg(Stadtpark) U,,U-Bahn,U3,53.59123813570386,10.015307084057582
Saarlandstraße U,,U-Bahn,U3,53.58840377790458,10.032728144712916
Wandsbeker Chaussee U,,U-Bahn,U1,53.569744868495974,10.057553608269982
Fuhlsbüttel Nord U,,U-Bahn,U1,53.63914300648871,10.017753981759935
Meiendorfer Weg U,,U-Bahn,U1,53.63922609150426,10.15617129772124
Hammer Kirche U,,U-Bahn,"U2,U4",53.55605864256987,10.055777772014698
Klein Borstel U,,U-Bahn,U1,53.62659783254483,10.031636842115681
Ritterstraße U,,U-Bahn,U1,53.567891584666576,10.047204162016534
Wandsbek Markt U,,U-Bahn,U1,53.571776772105956,10.068679723445422
Buchenkamp U,,U-Bahn,U1,53.65195309919275,10.18454138910198
Buckhorn U,,U-Bahn,U1,53.66594654514118,10.155137062309898
Kellinghusenstraße U Ri. Nord,,U-Bahn,"U1,U3",53.58950040960557,9.990225497799551
Sengelmannstraße Ri. Nord U,,U-Bahn,U1,53.608314052044975,10.022036056573544
Sternschanze (Messe) U,,U-Bahn,U3,53.564593474351554,9.968479039133985
Schlump U3,,U-Bahn,U3,53.567328716494345,9.969739637123556
Landungsbrücken U,,U-Bahn,U3,53.54717395519777,9.973278894513665
Hallerstraße U,,U-Bahn,U1,53.57242590924584,9.987360225212342
Wandsbek-Gartenstadt U Nord,,U-Bahn,"U1,U3",53.591369398968986,10.073623869578164
"Jungfernstieg U2,U4 Ri. West",,U-Bahn,"U2,U4",53.55203898714773,9.992344055364423
Meßberg U,,U-Bahn,U1,53.54765424249846,10.000072098563171
"Jungfernstieg U2,U4 Ri. Ost",,U-Bahn,"U2,U4",53.55242192804115,9.991886551508744
Elbbrücken U,,U-Bahn,U4,53.53426245464418,10.024205181603412
Mönckebergstraße U,,U-Bahn,U3,53.55091467470627,10.002771012148147
Langenhorn Markt U,,U-Bahn,U1,53.64895799530176,10.017769998824381
Mümmelmannsberg U,,U-Bahn,U2,53.527368885777534,10.148688664094163
Langenhorn Nord U,,U-Bahn,U1,53.66120980234439,10.016881923461813
Hagenbecks Tierpark U,,U-Bahn,U2,53.59434913800114,9.943545760462131
Kiwittsmoor U,,U-Bahn,U1,53.67423504128193,10.01775310528251
Lutterothstraße U,,U-Bahn,U2,53.581891077991,9.946738762581672
Steinfurther Allee U,,U-Bahn,U2,53.54165063375491,10.139117851489619
Ochsenzoll U,,U-Bahn,U1,53.6774119301741,10.001569606124672
Hagendeel U,,U-Bahn,U2,53.60283465844711,9.94579058841953
Feldstraße(Heiligengeistfeld) U,,U-Bahn,U3,53.557880107985305,9.969425909666054
Merkenstraße U,,U-Bahn,U2,53.538349827148025,10.12374308701465
Niendorf Markt U,,U-Bahn,U2,53.61894964349573,9.95128110243928
Christuskirche U,,U-Bahn,U2,53.56920139543346,9.96205546950192
Joachim-Mähl-Straße U,,U-Bahn,U2,53.62834589143163,9.950325476550548
Überseequartier U,,U-Bahn,U4,53.54198619753595,9.996563809913466
Schlump U2,,U-Bahn,U2,53.56739467305245,9.969652566710474
Schippelsweg U,,U-Bahn,U2,53.63586525073767,9.952093971406631
Niendorf Nord U,,U-Bahn,U2,53.63977465760903,9.949600912490249
HafenCity Universität U,,U-Bahn,U4,53.541589910476986,10.003654479858836
Ohlsdorf U,,U-Bahn,U1,53.62118754580753,10.033872998989295
Hoheluftbrücke U,,U-Bahn,U3,53.57738666206968,9.976894589266585
Eppendorfer Baum U,,U-Bahn,U3,53.583000756996256,9.984922573578702
Sengelmannstraße Ri. Süd U,,U-Bahn,U1,53.60849833316008,10.022087722721967
Sierichstraße U,,U-Bahn,U3,53.590961902260524,10.00165599631225
Alsterdorf U,,U-Bahn,U1,53.60671534897585,10.012760948268015
Klosterstern U,,U-Bahn,U1,53.5806708347265,9.987753875192276
Lattenkamp U,,U-Bahn,U1,53.599189566755705,9.99560303950949
Kellinghusenstraße U Ri. Süd,,U-Bahn,"U1,U3",53.58966977279755,9.989336334732903
Hudtwalckerstraße U,,U-Bahn,U1,53.59442112709453,9.995251973946704
Uhlandstraße U,,U-Bahn,U3,53.56482129423318,10.026556248961873
Eichbaumsee,Stadtbus,Bus,530,53.48756856785862,10.104416871605316
Mozartstraße,Stadtbus,Bus,172,53.57866999999977,10.023010000000122
BrookHus,Stadtbus,Bus,478,53.714459999999555,10.140360000000205
U Lattenkamp (Westseite),Stadtbus,Bus,"114,214,281,292,392",53.60045999999979,9.993940000000105
Röntgenstraße (Weg beim Jäger),"Nachtbus, Stadtbus",Bus,"292,392,N605",53.62374789528652,10.010126917965714
Niendorfer Straße,Stadtbus,Bus,391,53.61047999999983,9.956940000000088
Zeppelinstraße (Nord),"Nachtbus, Stadtbus",Bus,"292,392,N605,N606",53.62735046339105,10.009188825849275
Billhorner Deich,"Metrobus, Nachtbus, Stadtbus",Bus,"119,120,122,124,224,M3,N602",53.53416498879761,10.04248805548989
U S Berliner Tor (Bürgerweide),Stadtbus,Bus,"154,160,261",53.552991311021565,10.025629721547421
Beim Hammer Marktplatz,Stadtbus,Bus,116,53.557129999999724,10.053870000000142
U Hammer Kirche,Stadtbus,Bus,"116,130,530",53.55542492736966,10.055510984557255
HBF/Spitalerstraße,Stadtbus,Bus,112,53.55269381760239,10.005420802831546
Borstelmannsweg,Stadtbus,Bus,"130,530",53.550435041144446,10.049687272901362
Diagonalstraße,Stadtbus,Bus,130,53.54929999999972,10.059470000000145
Braune Brücke,Stadtbus,Bus,130,53.54686999999972,10.061100000000147
Billerhuder Insel,Stadtbus,Bus,130,53.54425877000568,10.05871163695279
Bullenhuser Damm,Stadtbus,Bus,130,53.542349999999715,10.052530000000143
Großmannstraße,Stadtbus,Bus,130,53.54108455393045,10.04831355892582
S Rothenburgsort,"Anruf-Sammel-Taxi, Stadtbus",Bus,"120,122,124,130,160,224,530",53.539499999999734,10.042710000000135
Nagelsweg,"Metrobus, Nachtbus",Bus,"M3,N602,N640,N641",53.543399356663535,10.022132821481105
U Steinstraße (Deichtorplatz),"Metrobus, Nachtbus, Stadtbus",Bus,"112,M2,M3,N640,N641",53.548819999999786,10.006090000000114
Billhorner Mühlenweg,"Metrobus, Nachtbus, Stadtbus",Bus,"119,M3,N602",53.53669999999974,10.034480000000132
Rothenburgsorter Marktplatz,"Metrobus, Nachtbus, Stadtbus",Bus,"119,M3,N602",53.53454999999975,10.038800000000133
Thiedingreihe,"Metrobus, Nachtbus, Stadtbus",Bus,"119,120,122,124,224,M3,N602",53.53366999999971,10.046020000000139
Zollvereinsstraße,"Metrobus, Nachtbus, Stadtbus",Bus,"119,120,122,124,224,M3,N602",53.532509999999746,10.051340000000142
Rothenburgstraße,"Metrobus, Nachtbus, Stadtbus",Bus,"119,120,122,124,224,M3,N602",53.53137999999971,10.057270000000146
S Tiefstack,"Metrobus, Nachtbus, Stadtbus",Bus,"119,120,122,124,224,M3,N602",53.5305897885255,10.064509590592026
Billstraße,Stadtbus,Bus,154,53.54164478162227,10.033391020057458
Grüne Brücke,Stadtbus,Bus,"120,122,124,160,224,530",53.54419999999972,10.040170000000133
Billstraße 133,Stadtbus,Bus,160,53.53888144495374,10.047842021873901
Billstraße 185,Stadtbus,Bus,160,53.537832586452176,10.051491746892612
Billstraße (Mitte),Stadtbus,Bus,160,53.536191004519026,10.05719308886809
Gustav-Kunst-Straße,Stadtbus,Bus,160,53.53774694318165,10.058908536625525
Sachsenstraße,Metrobus,Bus,M25,53.546408732735465,10.02741393054553
S Hammerbrook (Süd),"Metrobus, Stadtbus",Bus,"112,M25",53.545359999999754,10.024870000000124
Süderstraße,"Metrobus, Stadtbus",Bus,"112,154,160,M25",53.5453222918181,10.03055484387118
Ausschläger Weg (Verkehrsamt),"Metrobus, Stadtbus",Bus,"112,120,122,124,154,160,224,M25",53.54748999999974,10.038420000000132
Luisenweg,Stadtbus,Bus,112,53.54826999999972,10.045770000000138
Schadesweg,Stadtbus,Bus,112,53.5476599999997,10.051960000000141
Wendenstraße (Mitte),"Metrobus, Stadtbus",Bus,"120,122,124,160,224,M25",53.55002999999973,10.036450000000132
Wendenstraße,Stadtbus,Bus,"154,160",53.54781431189098,10.028607528716233
Jungestraße,Stadtbus,Bus,261,53.55625408018008,10.027442999886336
Carl-Petersen-Straße,"Metrobus, Stadtbus",Bus,"261,M25",53.559324545978775,10.038862078757449
S Landwehr (Ramazan-Avci-Platz),Metrobus,Bus,M25,53.561258396953534,10.037248571289853
U Lübecker Straße,"Metrobus, Nachtbus, Stadtbus",Bus,"530,M16,N608",53.55917462581515,10.026659665418935
U Lohmühlenstraße,"Metrobus, Nachtbus",Bus,"M16,N608",53.55717162304422,10.020287119586625
Böckmannstraße,"Metrobus, Nachtbus",Bus,"M16,N608",53.55485453969774,10.015200766245396
HBF/Kirchenallee,"Metrobus, Nachtbus",Bus,"M17,M18,M6,N606,N607",53.55285152917193,10.008612924440751
Gurlittstraße,"Metrobus, Nachtbus",Bus,"M17,M18,M6,N606,N607",53.55735999999977,10.011180000000113
AK St.Georg,"Metrobus, Nachtbus",Bus,"M17,M18,M6,N606,N607",53.55977865994771,10.014461427318945
Graumannsweg,"Metrobus, Nachtbus",Bus,"M17,M18,M6,N606,N607",53.56288999999978,10.01771000000012
Normannenweg,"Metrobus, Stadtbus",Bus,"120,122,124,224,M25",53.55181999999974,10.03508000000013
Osterbrookplatz,Stadtbus,Bus,112,53.54707999999972,10.058140000000146
Repsoldstraße,Stadtbus,Bus,112,53.548275114097,10.015018569917068
Albertstraße,Stadtbus,Bus,112,53.54910392307529,10.019789035150614
Alfredstraße,Stadtbus,Bus,261,53.557266597948576,10.031846177922661
S Hammerbrook (Nord),Stadtbus,Bus,112,53.54763199919633,10.0230814945222
Ausschläger Allee (Kfz-Verwahrstelle),"Metrobus, Nachtbus, Stadtbus",Bus,"119,120,122,124,224,M3,N602",53.53087698473655,10.061763406318418
Stoeckhardtstraße,Stadtbus,Bus,530,53.5578016475374,10.049616585551208
Griesstraße,Stadtbus,Bus,530,53.56237023180743,10.047123093372551
Hirschgraben,Stadtbus,Bus,530,53.563863425213235,10.044492118869025
Marienkrankenhaus,Stadtbus,Bus,530,53.56100212191598,10.03499576713717
S Landwehr (Hasselbrookstraße),Stadtbus,Bus,530,53.561792585454825,10.037640047698698
Bullenhuser Damm (West),Stadtbus,Bus,"120,122,124,160,224,530",53.54258310302319,10.043053406532783
Grevenweg,Stadtbus,Bus,130,53.55093069971018,10.042546087691717
AIRBUS (Osttor/Einfahrt),Stadtbus,Bus,"1705,2703,2704,2706,2707,2708,2711,2712,2713,2718,2719,4714,4750",53.53769667164257,9.846903116461574
Airbus (Fähranleger/Haus 25),Stadtbus,Bus,"1705,2703,2704,2706,2707,2708,2711,2712,2713,2718,2719,4714,4750",53.543112970641666,9.841067979316161
Haus des KFZ-Gewerbes,Stadtbus,Bus,130,53.54141098104634,10.0349401798682
Banksstraße (Großmarkt),Nachtbus,Bus,N602,53.54466246718836,10.014998664552083
Deichtorhallen,Nachtbus,Bus,N602,53.5458121813615,10.007159922536204
Oberhafenbrücke,Nachtbus,Bus,N602,53.54440811099675,10.005370463857364
Pröbenweg,Stadtbus,Bus,530,53.55442925964895,10.050192636084951
Dimpfelweg,Stadtbus,Bus,530,53.55293670171067,10.049313711128939
Borstelmannsweg 133,Stadtbus,Bus,530,53.548208493830266,10.051105345294635
Hammer Deich (Ost),Stadtbus,Bus,530,53.54542999999973,10.04876000000014
Kreuzbrook,Stadtbus,Bus,530,53.54639785925125,10.045444806782584
Billhorner Deich (Wasserforum),Stadtbus,Bus,530,53.53365736992312,10.041569058455721
Entenwerder Stieg,Stadtbus,Bus,530,53.5303413748293,10.042880891061467
Kaltehofe-Hinterdeich,Stadtbus,Bus,530,53.52695458650848,10.04587749815928
HBF/Mönckebergstraße,"Metrobus, Nachtbus",Bus,"M19,M3,M5,N606,N607,N608,N609,N610,N640,N641",53.55154611595118,10.003965804778426
Gerhart-Hauptmann-Platz,"Metrobus, Nachtbus",Bus,"M19,M3,M5,N606,N607,N608,N609,N610,N640,N641",53.55078382586245,9.99859013048886
Michaeliskirche,"Metrobus, Nachtbus",Bus,"M16,M17,N601,N609,N610,N641",53.54935870404895,9.977955660965526
Brandstwiete,"Metrobus, Nachtbus",Bus,"M4,M6,N602",53.547249999999785,9.996940000000109
Museum für Hamburgische Geschichte,"Nachtbus, Stadtbus",Bus,"112,N607",53.55073457694881,9.974234999662162
Handwerkskammer,"Nachtbus, Stadtbus",Bus,"112,N607",53.553215045905155,9.976578028039825
Parkallee,Metrobus,Bus,M15,53.572539999999805,9.983980000000098
U Stephansplatz,"Metrobus, Nachtbus, Stadtbus",Bus,"112,M19,M4,M5,N603,N604,N605",53.55821981488495,9.988990396794863
Museum am Rothenbaum,Stadtbus,Bus,114,53.56840202320659,9.988423033398796
Heinrich-Hertz-Turm,Nachtbus,Bus,N603,53.56465999999981,9.976250000000098
Universität/Staatsbibliothek,"Metrobus, Nachtbus",Bus,"M4,M5,N603,N604",53.56394999999981,9.9847600000001
Bf. Dammtor,"Metrobus, Nachtbus, Stadtbus",Bus,"114,M4,M5,N603,N604",53.56118843632983,9.990125667937168
Fontenay,"Metrobus, Nachtbus, Stadtbus",Bus,"114,M19,N605",53.56448999999979,9.994480000000106
Magellan-Terrassen,"Nachtbus, Stadtbus",Bus,"111,N602",53.542495857098984,9.993398165198677
U Hallerstraße,"Metrobus, Nachtbus, Stadtbus",Bus,"114,M15,N605",53.57266999999981,9.988660000000102
Kunsthalle,Stadtbus,Bus,112,53.55553839042877,10.00093728799902
Oberstraße,"Nachtbus, Stadtbus",Bus,"114,N605",53.57765999999981,9.988930000000105
Grindelhof,"Metrobus, Nachtbus",Bus,"M4,M5,N604",53.56710999999981,9.9808900000001
Paulinenstraße,Metrobus,Bus,M17,53.55462512037691,9.964738652538266
U Baumwall,"Metrobus, Nachtbus, Stadtbus",Bus,"111,M2,N608",53.544215846978275,9.979456972619632
Marco-Polo-Terrassen,"Nachtbus, Stadtbus",Bus,"111,N602",53.54024719973858,9.993806848834799
Auf dem Sande (Speicherstadt),"Metrobus, Nachtbus",Bus,"M6,N602",53.54410958748984,9.990488010611406
Bei St.Annen,"Metrobus, Nachtbus",Bus,"M6,N602",53.545599999999794,9.997200000000108
Domstraße,Metrobus,Bus,"M16,M17",53.5478699999998,9.994280000000108
U Überseequartier,"Nachtbus, Stadtbus",Bus,"111,N602",53.54075624360796,9.997012174062256
U HafenCity Universität,Stadtbus,Bus,111,53.540747402254155,10.005159014613849
Am Kaiserkai (Elbphilharmonie),"Metrobus, Stadtbus",Bus,"111,M2",53.54272438305829,9.985044667251113
Koreastraße,"Nachtbus, Stadtbus",Bus,"111,N602",53.54363670731053,10.001984344393245
Osakaallee,Stadtbus,Bus,111,53.54284432514459,9.998620807979654
Singapurstraße,"Metrobus, Nachtbus",Bus,"M2,M6,N602",53.543906920672796,9.997009024989525
Baakenhöft,Stadtbus,Bus,111,53.53808600029453,10.008789999876681
U S Elbbrücken,Stadtbus,Bus,"155,256",53.53523999999976,10.024140000000125
U S Elbbrücken (Baakenwerder Straße),Stadtbus,Bus,"119,130",53.53643375243072,10.022373200112016
Ericusspitze,Metrobus,Bus,M2,53.545957563087526,10.003044758005524
Lademannbogen 51,Stadtbus,Bus,193,53.643280936721965,10.030945075117483
Rambachstraße,"Metrobus, Nachtbus, Stadtbus",Bus,"111,M2,N608",53.54468082146081,9.975185302737296
Hohenesch,"Metrobus, Stadtbus",Bus,"288,M16,M2",53.55535999999985,9.928580000000073
Zeisehallen,Metrobus,Bus,M16,53.55455405659882,9.927453708658808
Victoriaallee,Stadtbus,Bus,462,53.60926999999943,10.19160000000026
Lily-Braun-Straße,"Nachtbus, Stadtbus",Bus,"134,234,329,335,N629",53.48733526933573,10.173941615088433
Schule Norderschulweg,Stadtbus,Bus,350,53.5318717004268,9.876496882465668
Fehrsweg,Stadtbus,Bus,"172,392",53.63082318321406,10.021154632094861
Stoppelfeld,Stadtbus,Bus,"168,368",53.612130525343176,10.147543723466693
Am Kroog,Stadtbus,Bus,"168,368",53.609397406225256,10.140894464331632
Arnswalder Straße,Stadtbus,Bus,"168,368",53.613552395328185,10.151108922102717
Dampfschiffsweg,Stadtbus,Bus,157,53.47100265887587,9.98297345963612
Wilhelm-Weber-Straße,Stadtbus,Bus,157,53.47342853484651,9.977990729222888
U Legienstraße,Stadtbus,Bus,161,53.54620682708469,10.097896636515287
Neuer Fährweg,Stadtbus,Bus,"257,2719,350,550",53.53017999999996,9.791490000000033
Beim Avenberg,Stadtbus,Bus,"122,124,222,224",53.470849999999665,10.082770000000165
Halskestraße (West),Stadtbus,Bus,"120,220",53.52560396466046,10.075121652918014
Halskestraße (Mitte),Stadtbus,Bus,"120,220",53.5203812612426,10.084482527357352
Andreas-Meyer-Straße (Mitte),Stadtbus,Bus,"124,224",53.518081039778885,10.07827136348822
Andreas-Meyer-Straße (Ost),Stadtbus,Bus,"124,224",53.515049536947245,10.083147231863887
Moorfleet,Stadtbus,Bus,"120,122,124,220,222,224",53.511739999999676,10.087650000000169
Billwerder Bucht,Stadtbus,Bus,"122,220",53.52297111376627,10.067573037607234
Moorfleeter Deich,Stadtbus,Bus,"122,220",53.51760084434463,10.069523144132367
Sandwisch,Stadtbus,Bus,"122,220",53.51523863228461,10.074200723934378
Moorfleeter Hauptdeich,Stadtbus,Bus,"120,122,124,220,222,224,530",53.50093999999967,10.079170000000163
Tatenberger Schleuse,Stadtbus,Bus,"120,122,124,220,222,224",53.49776833018118,10.077924846947074
Tatenberger Damm,Stadtbus,Bus,"120,122,124,220,222,224",53.492509999999704,10.067810000000154
Spadenländer Ecke,Stadtbus,Bus,"120,122,124,220,222,224",53.491317790050964,10.065172482623572
Beim Bieberhof,Stadtbus,Bus,"120,122,124,222,224",53.48535999999969,10.072140000000157
Fasanengrund,Stadtbus,Bus,"120,122,124,222,224",53.48049872192828,10.075746790057797
Schwersweg,Stadtbus,Bus,"120,122,124,222,224",53.477119999999694,10.07778000000016
Hofschläger Deich,Stadtbus,Bus,"220,222",53.48603999999971,10.054180000000144
Elversweg,Stadtbus,Bus,"120,122,124,222,224,422",53.47363999999968,10.079430000000164
Ochsenwerder Kirche,Stadtbus,Bus,"222,422",53.476901324676405,10.084578712463367
Eichholzfelder Deich,Stadtbus,Bus,"222,422",53.479529999999635,10.09014000000017
Ochsenwerder Mühlenweg,Stadtbus,Bus,"222,422",53.47886999999964,10.098650000000175
Reitdeich,Stadtbus,Bus,"222,422",53.47567999999963,10.10147000000018
Goseburg,Stadtbus,Bus,"222,422",53.471615889781766,10.104432663837036
Ochsenwerder Norderdeich,Stadtbus,Bus,"222,422",53.46547668668206,10.1135055314523
Oortkatenweg (Nord),Stadtbus,Bus,"222,422",53.46419957261595,10.120083858804934
Gauert,Stadtbus,Bus,"122,124,222,224",53.46382501128323,10.088397765385297
Oortkatenweg,Stadtbus,Bus,"122,124,127,222,224",53.45688999999962,10.105140000000183
Hohendeicher See (Nord),Stadtbus,Bus,422,53.44943634301257,10.099726798152226
Ochsenwerder Elbdeich,Stadtbus,Bus,422,53.44664498757397,10.107880025174541
Siedlung Fünfhausen,Stadtbus,Bus,"122,124,127,222,224",53.451243117455384,10.114907578429415
Hohedeich (Feuerwehr),Stadtbus,Bus,422,53.441640880584174,10.111451349239337
Hohedeich,Stadtbus,Bus,422,53.44058238950782,10.114983705955614
Durchdeich (Süd),Stadtbus,Bus,422,53.441139999999585,10.121390000000197
Schule Ochsenwerder,Stadtbus,Bus,"120,220,222,223,422",53.471144162933776,10.073743833333792
Dorferbogen,Stadtbus,Bus,"120,220,222,223,422",53.46804947728259,10.067131618690135
Gauerter Hauptdeich 35,Stadtbus,Bus,"120,223,422",53.46322655589988,10.066751722420452
Gauerter Hauptdeich 77,Stadtbus,Bus,"120,223,422",53.46025999999968,10.069960000000155
Ochsenwerder Elbdeich 3,Stadtbus,Bus,"120,223,422",53.4573799999997,10.07562000000016
Oortkaten,Stadtbus,Bus,"120,223,422",53.44904999999964,10.09042000000017
Overhaken,Stadtbus,Bus,"120,223,422",53.43678999999961,10.106910000000184
Overwerder,Stadtbus,Bus,"120,223,322,323,422",53.43063999999961,10.11337000000019
Spadenländer Elbdeich,Stadtbus,Bus,"220,222",53.47814656411855,10.062523954531228
Homannring,Stadtbus,Bus,"122,124,127,222,224",53.447529999999574,10.124110000000202
Andreas-Meyer-Straße (West),Stadtbus,Bus,"124,224",53.52237295580513,10.071366231539642
Nagelstegel,Stadtbus,Bus,"120,223,422",53.45606999999967,10.080760000000167
Oortkatenufer,Stadtbus,Bus,"120,223,422",53.44067898148074,10.10127338750847
Moorfleeter Kirchenweg,Stadtbus,Bus,"122,220",53.51314437644427,10.081972328138326
Moorfleet (Feuerwehr),Stadtbus,Bus,"122,220",53.512062034525954,10.086668332317506
Moorfleet (Halskestraße),Stadtbus,Bus,"120,220,230,430",53.51247718713025,10.08875237347483
Hein-Baxmann-Stieg,Stadtbus,Bus,"122,220",53.5129577358341,10.083613143811789
Kneidenweg,Stadtbus,Bus,530,53.500809999999674,10.072470000000155
Moorfleeter Brückenstraße,Stadtbus,Bus,530,53.50050145542246,10.082731651266304
Moorfleeter Deich 344,Stadtbus,Bus,530,53.495820304137396,10.091335092025586
Billbrookdeich 210,Stadtbus,Bus,"430,432",53.53497740877347,10.10410886904477
Billstieg,Stadtbus,Bus,"430,432",53.53409721224107,10.108457753912887
Schule Billbrookdeich,Stadtbus,Bus,"430,432",53.532701143219754,10.111032003262277
Billwerder Billdeich (West),Stadtbus,Bus,330,53.52260531377073,10.114071630685022
Maler- und Lackierer-Museum,Stadtbus,Bus,330,53.5210799999996,10.119860000000195
Glockenhausbrücke,Stadtbus,Bus,330,53.517709999999596,10.123500000000199
Billwerder Kirche,Stadtbus,Bus,330,53.5142225933206,10.127920252492284
Billwerder Billdeich 174,Stadtbus,Bus,330,53.50942917446931,10.129527778459819
Billwerder (Feuerwehr),Stadtbus,Bus,330,53.50457599467347,10.135669448341666
Mittlerer Landweg (Nord),Stadtbus,Bus,"221,330",53.50266129630276,10.139987767985083
Schule Mittlerer Landweg,Stadtbus,Bus,"221,330,530",53.49883999999956,10.134210000000206
Rungedamm (Nord),Stadtbus,Bus,"230,430",53.5001925698026,10.106670695745912
S Mittlerer Landweg,Stadtbus,Bus,"221,230,321,330,430,530",53.49732999999957,10.131940000000206
Rungedamm (Ost),Stadtbus,Bus,"230,321,430,530",53.493569999999565,10.126810000000201
Am Gleisdreieck,Stadtbus,Bus,"230,321,430,530",53.49531999999958,10.128910000000202
Mittlerer Landweg (Süd),Stadtbus,Bus,321,53.48884659715209,10.11906067360539
Moorfleeter Deich (Ost),Stadtbus,Bus,"321,530",53.485349999999606,10.11581000000019
Pumpwerk Allermöhe,Stadtbus,Bus,321,53.48201437660965,10.117708118392166
Allermöher Deich 75,Stadtbus,Bus,321,53.482946155798494,10.12306141634315
Allermöher Kirche,Stadtbus,Bus,321,53.48215999999959,10.1288600000002
Allermöher Deich 187,Stadtbus,Bus,321,53.47538679772401,10.141370656103637
See Hinterm Horn,Stadtbus,Bus,321,53.474785204469164,10.15843112158069
Hans-Duncker-Straße (Nord),Stadtbus,Bus,"230,530",53.492629916584306,10.118623904770313
Fockenweide,"Nachtbus, Stadtbus",Bus,"221,234,N610",53.49047609860659,10.178681200111676
Friedrich-Frank-Bogen (Mitte),"Nachtbus, Stadtbus",Bus,"221,234,N610",53.49167999999948,10.17788000000025
Friedrich-Frank-Bogen (Nord),"Nachtbus, Stadtbus",Bus,"221,234,N610",53.494112209426234,10.179675984661237
Billwerder Billdeich (Ost),"Nachtbus, Stadtbus",Bus,"134,221,234,534,N610",53.49583610996911,10.179948378575542
Bojeweg,Stadtbus,Bus,221,53.50085999999946,10.174560000000247
Bojendamm,Stadtbus,Bus,221,53.502679999999486,10.170710000000241
Boberger Furtweg,Stadtbus,Bus,221,53.50639002931856,10.164035383226206
Billwerder Billdeich 356,Stadtbus,Bus,221,53.50250578294954,10.153917633056428
Billwerder Billdeich 318,Stadtbus,Bus,221,53.50121604021872,10.147850329574018
Billbrookdeich (Ost),Stadtbus,Bus,330,53.53045528908087,10.111916950463481
Rotenbrückenweg,Stadtbus,Bus,330,53.530915410727445,10.1159965668633
Allermöher Deich 355,Stadtbus,Bus,321,53.47249574446073,10.162531648236119
Allermöher Deich 365,Stadtbus,Bus,321,53.472473296889774,10.164835320077156
S Nettelnburg,"Nachtbus, Stadtbus",Bus,"221,234,235,534,N610",53.488328354055156,10.18312004065472
Hans-Duncker-Straße (Mitte),Stadtbus,Bus,"230,530",53.49049049987349,10.115507508107084
Wilhelm-Iwan-Ring,Stadtbus,Bus,230,53.4910781458126,10.10931781675892
Rungedamm (Mitte),Stadtbus,Bus,"230,430",53.49887466898273,10.110305587350222
Werner-Witt-Straße (Süd),Stadtbus,Bus,230,53.49372240736965,10.106591156636947
Werner-Witt-Straße (Nord),Stadtbus,Bus,"230,430",53.49646431093831,10.112094938543027
Billstieg (Kehre),Stadtbus,Bus,"430,432",53.533734787819135,10.109549659023736
Hermann-Wüsthof-Ring (Ost),Stadtbus,Bus,230,53.49311798957051,10.109627556232425
Herbert-Pardo-Weg,"Metrobus, Nachtbus, Stadtbus",Bus,"329,M12,N629",53.48477999999953,10.152390000000224
Adolf-Köster-Damm,"Metrobus, Nachtbus, Stadtbus",Bus,"329,M12,N629",53.48541409262574,10.146963452876568
Otto-Grot-Straße,"Metrobus, Nachtbus, Stadtbus",Bus,"329,M12,N629",53.4886735286913,10.147553569195058
Karl-Rüther-Stieg,"Metrobus, Nachtbus, Stadtbus",Bus,"329,M12,N629",53.48965999999952,10.154030000000224
Sophie-Schoop-Weg,"Nachtbus, Stadtbus",Bus,"335,N629",53.48924594895493,10.164905124434696
Auf der Bojewiese,Stadtbus,Bus,221,53.49774069870456,10.176977651596367
Berufsschulzentrum Bergedorf,Stadtbus,Bus,"134,534",53.49167879019159,10.182633931899241
S Allermöhe,"Metrobus, Nachtbus, Stadtbus",Bus,"329,335,M12,N629",53.489819999999526,10.15850000000023
Fritz-Lindemann-Weg,Stadtbus,Bus,"234,534",53.509729999999436,10.185430000000258
Unterer Landweg (Nord),Stadtbus,Bus,"330,430,432",53.52622999999962,10.110550000000186
Bredowstraße (Ost),Stadtbus,Bus,230,53.519764531519996,10.095273309045874
S Billwerder-Moorfleet,Stadtbus,Bus,"230,430,432",53.51646999999963,10.095710000000176
IKEA Moorfleet,Stadtbus,Bus,432,53.511117220657944,10.096654821462202
Billwerder Ring (Ost),Stadtbus,Bus,"230,430,530",53.49435482615549,10.121663072065095
Hermann-Wüsthof-Ring (West),Stadtbus,Bus,"230,430",53.49768253649639,10.102146404294723
Rungedamm (West),Stadtbus,Bus,"230,430",53.497589999999654,10.096530000000174
Gewerbegebiet Moorfleet,Stadtbus,Bus,"230,430",53.50269792599205,10.090881287302132
Porgesring,Stadtbus,Bus,230,53.52170803938415,10.097831141770754
Pinkertweg (Ost),Stadtbus,Bus,"230,430,432",53.52164653873019,10.10382561154171
Moorfleeter Deich 380,Stadtbus,Bus,530,53.49194568587052,10.092452618299442
Moorfleeter Deich 427,Stadtbus,Bus,530,53.487625136869696,10.09494796136095
U Steinfurther Allee,"Nachtbus, Stadtbus",Bus,"133,233,333,432,733,N619",53.54120749871505,10.139406552632108
Reclamstraße,"Metrobus, Nachtbus, Stadtbus",Bus,"133,330,M12,M29,N609,N619",53.538612144922645,10.11014071839755
Öjendorfer Steinkamp,"Nachtbus, Stadtbus",Bus,"133,N619",53.539759999999596,10.133210000000204
Oberschleems,"Nachtbus, Stadtbus",Bus,"133,N619",53.53819999999961,10.119470000000193
U Merkenstraße,"Nachtbus, Stadtbus",Bus,"133,432,N619",53.538789999999594,10.127300000000199
Rahewinkel,Stadtbus,Bus,233,53.52275999999953,10.154890000000226
Schlangenkoppel,"Nachtbus, Stadtbus",Bus,"133,233,333,733,N619",53.542559999999554,10.140480000000212
"Oststeinbek, Willinghusener Weg","Nachtbus, Stadtbus",Bus,"133,233,333,733,N619",53.542839999999536,10.152280000000223
Haseneck,"Metrobus, Nachtbus",Bus,"M12,N609",53.52993148561453,10.136781387562218
An der Schleemer Mühle,"Metrobus, Nachtbus",Bus,"M12,N609",53.537577603674556,10.115371833251329
Mehrenskamp,"Metrobus, Nachtbus",Bus,"M12,N609",53.534249999999595,10.121880000000198
Steinbeker Marktstraße,"Metrobus, Nachtbus",Bus,"M12,N609",53.5324183555964,10.127738956755389
Kirchsteinbek,"Metrobus, Nachtbus",Bus,"M12,M29,N609,N610",53.52985999999958,10.129140000000202
Schule Mümmelmannsberg,"Metrobus, Nachtbus",Bus,"M12,N609",53.529882712807556,10.139240063146078
Max-Klinger-Straße,"Metrobus, Nachtbus",Bus,"M12,N609",53.52980999999954,10.144270000000217
Feiningerstraße,"Metrobus, Nachtbus",Bus,"M12,N609",53.529759999999534,10.148820000000223
U Mümmelmannsberg,"Metrobus, Nachtbus, Stadtbus",Bus,"134,233,332,534,M12,M29,N609,N610",53.526973344696195,10.149869681302448
Steinbeker Grenzdamm,"Metrobus, Nachtbus, Stadtbus",Bus,"134,233,332,534,M12,M29,N609,N610",53.52416999999953,10.149970000000224
Boberger Drift,"Metrobus, Nachtbus, Stadtbus",Bus,"332,534,M12,N609",53.51344678354143,10.171744388232906
Rudorffweg,"Metrobus, Nachtbus, Stadtbus",Bus,"332,534,M12,N609",53.51243723801866,10.178493704491158
Mendelstraße,"Metrobus, Nachtbus, Stadtbus",Bus,"234,332,534,M12,N609",53.511454071515885,10.186942015300195
Haempten,"Metrobus, Nachtbus, Stadtbus",Bus,"234,332,M12,N609",53.511749999999424,10.192510000000265
Am Langberg,"Metrobus, Nachtbus, Stadtbus",Bus,"534,M12,N609",53.515999999999515,10.157870000000232
Münterweg,"Metrobus, Nachtbus",Bus,"M29,N610",53.52743999999953,10.144470000000217
Billstedter Mühlenweg,"Metrobus, Nachtbus, Stadtbus",Bus,"330,M29,N610",53.53332999999963,10.11535000000019
Frobeniusweg,"Metrobus, Nachtbus, Stadtbus",Bus,"330,M29,N610",53.5370399999996,10.108660000000183
Grandkoppelstieg,Stadtbus,Bus,"234,534",53.505993503975866,10.191843805956351
Schulenburgring,Stadtbus,Bus,"234,534",53.50790999999944,10.187510000000259
Richard-Linde-Weg,"Nachtbus, Stadtbus",Bus,"134,234,534,N610",53.501569999999425,10.18796000000026
Havighorster Redder (West),"Metrobus, Nachtbus",Bus,"M29,N610",53.52741999999955,10.135910000000207
Moosberg (Pflegezentrum),"Nachtbus, Stadtbus",Bus,"134,234,534,N610",53.49804999999945,10.182120000000253
Lohkamp,"Metrobus, Nachtbus",Bus,"M29,N610",53.5312799999996,10.122720000000196
Schulredder,"Metrobus, Nachtbus, Stadtbus",Bus,"534,M12,N609",53.51430644562336,10.163713076034067
Strietkoppel,Stadtbus,Bus,332,53.52858036752292,10.15381044847989
Am Mühlenbach,Stadtbus,Bus,332,53.53102653883085,10.154317719315529
Sonnenland,Stadtbus,Bus,432,53.53703999999955,10.135520000000206
Oststeinbeker Weg (Mitte),Stadtbus,Bus,432,53.538523656212035,10.140189411444414
Oststeinbeker Weg (West),Stadtbus,Bus,432,53.53565999999959,10.131190000000204
Schleemer Weg (Nord),Stadtbus,Bus,432,53.542449999999604,10.114690000000188
Liebezeitstraße,Stadtbus,Bus,432,53.542979999999595,10.118870000000191
Kandinskyallee (Nord),Stadtbus,Bus,332,53.53294543324944,10.150910345253276
Fünfhausen (Durchdeich),Stadtbus,Bus,"122,124,127,222,224,422",53.44435191091806,10.127577197835473
Fünfhausen,Stadtbus,Bus,"122,127,222,322,422",53.44474999999956,10.131410000000207
Schule Fünfhausen,Stadtbus,Bus,"122,127,222,322,422",53.44834770403367,10.133355386394339
Durchdeich (Polizei),Stadtbus,Bus,"122,127,222,322,422",53.45318426297803,10.13752479707485
Heinrich-Osterath-Straße 241,Stadtbus,Bus,"122,222,322,422",53.4562890425781,10.141524990692345
Wulffsbrücke,Stadtbus,Bus,"122,222,322,422",53.45930855465722,10.136449771367625
Reitbrooker Hinterdeich,Stadtbus,Bus,"122,222,322",53.461209999999554,10.139400000000212
Ochsenwerder Norderdeich 320,Stadtbus,Bus,422,53.46150743047319,10.130139092281365
Alte Schule Reitbrook,Stadtbus,Bus,"122,222,322",53.46796999999953,10.148540000000224
Vorderdeich 119,Stadtbus,Bus,"122,222",53.469159999996045,10.152319999999676
Vorderdeich 75,Stadtbus,Bus,"122,222",53.46878055207678,10.159796148821675
Reitbrooker Mühle,Stadtbus,Bus,"122,222",53.467586718522796,10.171363675619615
Reitbrooker Mühlenbrücke,Stadtbus,Bus,"122,222",53.468229208105484,10.17585485276926
Nettelnburger Landweg (Süd),Stadtbus,Bus,"122,222,321",53.47117678429941,10.174560398028948
BAB-Auffahrt Nettelnburg,Stadtbus,Bus,"122,222,321",53.47560247623446,10.177440459073766
Allermöher Werftstegel,Stadtbus,Bus,321,53.471649999999485,10.172450000000245
Wehrdeich,Stadtbus,Bus,235,53.48636999999943,10.189520000000263
Kienenhagen,Stadtbus,Bus,235,53.48408999999943,10.188630000000263
Heulandhagen,Stadtbus,Bus,235,53.48058999999945,10.187300000000262
Katendeich,"Nachtbus, Stadtbus",Bus,"235,329,335,N629",53.47684999999943,10.191750000000265
Nettelnburger Straße,"Nachtbus, Stadtbus",Bus,"227,235,329,335,N629",53.476289999999416,10.195950000000272
Krapphofschleuse,Stadtbus,Bus,227,53.46814436823381,10.189510744966217
Schleusendamm,Stadtbus,Bus,"227,323,427",53.465169999999425,10.189730000000264
Curslacker Brückendamm,Stadtbus,Bus,"124,223,224,227,323,427",53.46294191029278,10.199345209556308
Kirchwerder Landweg 70,Stadtbus,Bus,"124,223,224,323",53.45750575025806,10.19164263603173
Kirchwerder Landweg 182,Stadtbus,Bus,"124,223,224,323",53.44928141844466,10.180351474937735
Neuengammer Hinterdeich,Stadtbus,Bus,"124,223,224,323",53.44666999999947,10.176760000000252
Heinrich-Osterath-Straße (Ost),Stadtbus,Bus,"124,127,223,224,322,323",53.44404999999949,10.173610000000247
Am Pavillon,Stadtbus,Bus,345,53.43387364534315,9.968813361711014
Kirchwerder Hausdeich (West),Stadtbus,Bus,"124,127,224,322,323",53.440819041797525,10.184049749474466
Spritzenhaus,Stadtbus,Bus,"124,127,224,322,323",53.437278309005485,10.187552136237592
Hilda-Monte-Weg,"Nachtbus, Stadtbus",Bus,"134,234,329,335,N629",53.48231999999948,10.170350000000242
Marschbahndamm,Stadtbus,Bus,"223,323",53.42863322100951,10.154435083700756
Howe,Stadtbus,Bus,"124,223,224,322,323",53.42007999999953,10.148350000000223
Heinrich-Osterath-Straße (Mitte),Stadtbus,Bus,"127,322",53.45514762712049,10.148810574279127
Seefelder Fischteiche,Stadtbus,Bus,"127,322",53.45104202308198,10.15716518344814
Alte Schule Seefeld,Stadtbus,Bus,"127,322",53.44400151465487,10.164306881414772
Fersenweg,Stadtbus,Bus,"223,323",53.4329699999995,10.158270000000234
Siedfeld,Stadtbus,Bus,"124,224,322",53.43396839480766,10.130272028082624
Kirchwerder Schulweg,Stadtbus,Bus,"124,224,322",53.42965999999957,10.134400000000207
Elisabeth-von-Thadden-Kehre,"Nachtbus, Stadtbus",Bus,"134,234,329,N629",53.480193518581316,10.16745587398445
Lilo-Gloeden-Kehre,"Nachtbus, Stadtbus",Bus,"134,234,329,N629",53.478801949817296,10.170513671461064
Jeanette-Wolff-Ring,"Nachtbus, Stadtbus",Bus,"134,234,329,N629",53.4779100893036,10.17327570900084
Fiddigshagen,"Nachtbus, Stadtbus",Bus,"227,235,329,335,N629",53.4795799999994,10.197900000000272
Wiesnerring,"Nachtbus, Stadtbus",Bus,"227,235,329,335,N629",53.482549999999414,10.200080000000275
Stadtteilschule Bergedorf,"Nachtbus, Stadtbus",Bus,"122,221,222,321,N610",53.492668846944916,10.190492516779733
Ruselerweg,"Nachtbus, Stadtbus",Bus,"122,221,222,321,N610",53.49248496634565,10.195760243309865
Kurfürstendeich,Stadtbus,Bus,"124,127,223,224",53.466455634788794,10.201820535747313
Curslacker Deich 336,Stadtbus,Bus,"127,427",53.463794587503266,10.207151971914547
Rieck-Museum,Stadtbus,Bus,"127,427",53.45888947912273,10.215033993582573
Neuengammer Hausdeich 421,Stadtbus,Bus,"227,323,427",53.457502426476545,10.20627395478198
Warwischer Hinterdeich,Stadtbus,Bus,"120,223,322,323",53.42540999999959,10.121460000000198
Wraust,Stadtbus,Bus,"120,223,322,323",53.42319739182276,10.139553297954409
Hower Hauptdeich,Stadtbus,Bus,"120,223,323",53.41625999999954,10.148720000000225
Howe (Ost),Stadtbus,Bus,"120,323",53.41136999999952,10.152470000000228
Süderquerweg 263,Stadtbus,Bus,"124,224",53.4132535532294,10.15576597183828
Hower Brack,Stadtbus,Bus,"124,223,224",53.418455517370475,10.150688051824211
Friedmannbogen,"Nachtbus, Stadtbus",Bus,"329,N629",53.477979999999455,10.183800000000259
Richard-Gödeke-Weg,Stadtbus,Bus,"122,222",53.4854419724896,10.184805101409392
Henriette-Herz-Ring,"Nachtbus, Stadtbus",Bus,"134,234,329,335,N629",53.483599999999484,10.172090000000244
Fanny-Lewald-Ring,"Nachtbus, Stadtbus",Bus,"134,234,329,N629",53.476636883112135,10.175953906229738
Anton-Rée-Schule,Stadtbus,Bus,329,53.482315890755956,10.174812628758573
Billwiese,"Nachtbus, Stadtbus",Bus,"122,221,222,321,N610",53.491215059786576,10.188534578025726
Gertrud-Seele-Kehre,Stadtbus,Bus,335,53.480695453794304,10.17329490928425
Nettelnburger Kirchenweg,Stadtbus,Bus,"122,222",53.480184223925384,10.182801124457585
Siedlung Curslack (Nord),Stadtbus,Bus,"124,127,223,224",53.473819999999385,10.204790000000282
Am Schilfpark,Stadtbus,Bus,"122,221,321",53.479743277667616,10.2047036911434
Neuengammer Hausdeich 490,Stadtbus,Bus,"227,323,427",53.463048242442106,10.198516692864928
In der Hörn,Stadtbus,Bus,227,53.474269999999414,10.194800000000273
Freegen,Stadtbus,Bus,"124,224,322",53.441729999999595,10.129680000000203
Energie-Campus Bergedorf,Stadtbus,Bus,"122,221,321",53.47703952102594,10.203608017027904
Erna-Mohr-Kehre,Stadtbus,Bus,335,53.4785513860191,10.177358993851024
Ameisweg,Stadtbus,Bus,335,53.476975659693395,10.181454588780484
Gersonweg,Stadtbus,Bus,335,53.475155591087,10.182022970530236
Krapphofstraße,Stadtbus,Bus,335,53.47500882857637,10.187834795813739
Neuengammer Hauptdeich,Stadtbus,Bus,"120,227,427",53.41597018299696,10.251658210079908
Achterschlag,Stadtbus,Bus,"225,328",53.46786999999929,10.237440000000321
Wasserwerk,Stadtbus,Bus,"225,328",53.462812284221485,10.235704507483469
Curslacker Heerweg 118,Stadtbus,Bus,"225,328",53.45917494809417,10.234443183556039
Grashofweg,Stadtbus,Bus,"225,328",53.45378958586911,10.232505429446753
Rieckweg,Stadtbus,Bus,"225,328",53.44890999999931,10.230050000000315
Curslacker Deich 200,Stadtbus,Bus,"127,427",53.45341496262326,10.218006037032357
Curslack (Feuerwehr),Stadtbus,Bus,"127,427",53.45043177564043,10.22191057268972
Norderquerweg 92,Stadtbus,Bus,"127,322,323",53.42950862449443,10.196771551380731
Neuengammer Hausdeich 351,Stadtbus,Bus,"227,323,427",53.45308861841115,10.213897340699827
Neuengammer Hausdeich 310,Stadtbus,Bus,"227,323,427",53.44920382634828,10.214364741372046
Neuengammer Kirche,Stadtbus,Bus,"127,227,328,427",53.445999262729934,10.222332972053376
Lütte Stegel,Stadtbus,Bus,"127,227,328,427",53.44516999999932,10.225720000000308
Heinrich-Stubbe-Weg,Stadtbus,Bus,"127,225,227,328,427",53.445179999999304,10.229400000000311
Horster Damm,Stadtbus,Bus,"228,328",53.46175036788195,10.273355967967197
Alte Horster Schule,Stadtbus,Bus,"228,328,428",53.45564246058439,10.283327480035775
Lüttwetter,Stadtbus,Bus,"228,328,428",53.43495541689351,10.276011654999055
Altengamme (Feuerwehr),Stadtbus,Bus,"228,328,428",53.43033541260658,10.274407655189892
Borghorst,Stadtbus,Bus,"120,228,328,428,439",53.440436096304346,10.303344515649686
Zeltplatz Altengamme,Stadtbus,Bus,"120,228,328,428,439",53.432824067375975,10.29850360232784
Altengammer Löschplatz,Stadtbus,Bus,"120,228,328,428",53.428729999999085,10.2907700000004
Altengamme (Süd),Stadtbus,Bus,"120,228,328,428",53.427611632197625,10.28585155842635
Altengammer Elbwiesen,Stadtbus,Bus,"120,228,328,428",53.4267259144095,10.279337704429485
Gammer Weg (Süd),Stadtbus,Bus,"120,228,328,428",53.42695999999915,10.273230000000373
Neuengammer Elbdeich,Stadtbus,Bus,"120,227,427",53.42257999999921,10.257390000000349
Achterdeich,Stadtbus,Bus,"120,227,424,427",53.40867999999924,10.246620000000334
Kraueler Hauptdeich 261,Stadtbus,Bus,"120,424",53.402619999999274,10.241560000000332
Kraueler Hauptdeich,Stadtbus,Bus,"120,424",53.39792912845976,10.234146060617451
Ost-Kraueler Bogen,Stadtbus,Bus,"120,225,424",53.397679999999326,10.22555000000031
West-Kraueler Bogen,Stadtbus,Bus,"120,225,424",53.3986179868523,10.216998857370207
Riepenburg,Stadtbus,Bus,"120,225,424",53.40210999999938,10.204810000000283
Krummer Hagen,Stadtbus,Bus,"225,424",53.40673999999939,10.207960000000288
Kirchwerder Mühlendamm,Stadtbus,Bus,"225,424",53.41230699552769,10.210436463960665
Zwischen den Zäunen,Stadtbus,Bus,"127,227,427",53.43961723370189,10.231555267645673
Jean-Dolidier-Weg,Stadtbus,Bus,"127,227,427",53.43798999999929,10.233880000000317
Bei der Blauen Brücke,Stadtbus,Bus,"227,427",53.43736999999928,10.23680000000032
Windpark Neuengamme,Stadtbus,Bus,"227,427",53.431163027195716,10.241971956560363
Neuengammer Hausdeich 52,Stadtbus,Bus,"227,427",53.426532132279725,10.249669256212323
Neuengammer Marschbahndamm,Stadtbus,Bus,"227,427",53.42408999999923,10.253660000000345
Kälbersteert,Stadtbus,Bus,424,53.440916110837634,10.196242572265705
Neuengammer Hinterdeich 180,Stadtbus,Bus,424,53.43885058970513,10.203085606731786
Neuengammer Hinterdeich 143,Stadtbus,Bus,424,53.43539700534348,10.204944484825784
Neuengammer Hinterdeich 123,Stadtbus,Bus,424,53.432746961923314,10.202766846189032
Neuengammer Hinterdeich 60,Stadtbus,Bus,424,53.42874822607053,10.205586262718228
Neuengammer Hinterdeich (Ost),Stadtbus,Bus,"225,328,424",53.427709999999365,10.215100000000298
Kiebitzdeich (West),Stadtbus,Bus,"225,328,424",53.4250324897777,10.2150104442533
In der Ohe-Nord,Stadtbus,Bus,"127,225,328,427",53.41954999999937,10.205130000000283
Hitscherberg,Stadtbus,Bus,"124,224",53.43779313271149,10.196254725097095
Kirchwerder Hausdeich (Mitte),Stadtbus,Bus,"124,224",53.43079836403393,10.198291762358656
Achterdiekbrücke,Stadtbus,Bus,"124,224",53.42672853969403,10.204126520702738
Alter Bahnhof Kirchwerder,Stadtbus,Bus,"127,322,323",53.4252299999994,10.200680000000276
Schule Kirchwerder,Stadtbus,Bus,"124,127,224,225,322,323,328,424,427",53.420369999999394,10.201940000000281
Kirchwerder Kirche,Stadtbus,Bus,"124,224,323,424",53.41880999999941,10.199660000000277
Sielkuhle,Stadtbus,Bus,"225,424",53.417601601267656,10.201425688329444
Kirchwerder Hausdeich 404,Stadtbus,Bus,"225,424",53.41535812061474,10.204200794251753
Karkenland,Stadtbus,Bus,"124,224,323,424",53.41695604263304,10.197083874681507
Teufelsort,Stadtbus,Bus,"124,224,323,424",53.41187999999941,10.191410000000268
Kirchenheerweg,Stadtbus,Bus,"124,224,323,424",53.40414999999945,10.18592000000026
Süderquerweg 208,Stadtbus,Bus,"124,224",53.411801157229554,10.161464224415292
Neesentwiete,Stadtbus,Bus,"124,224",53.4100166509749,10.171842407361273
Auf dem Sülzbrack,Stadtbus,Bus,"124,224",53.407319999999466,10.178350000000254
Grünerdeich,Stadtbus,Bus,"120,124,323,424",53.40178916088647,10.189572829236205
Zollenspieker (Fähre),Stadtbus,Bus,"120,124,323,424",53.39837999999945,10.18274000000026
Sülzbrack,Stadtbus,Bus,"120,323",53.399264655805496,10.17385919159907
Lütjenburg (Kirchwerder),Stadtbus,Bus,"120,323",53.400549999999484,10.168360000000243
Sande,Stadtbus,Bus,"120,323",53.40605999999951,10.158840000000232
KZ-Gedenkstätte (Mahnmal),Stadtbus,Bus,"127,227,427",53.43538816133137,10.232019411529462
KZ-Gedenkstätte (Ausstellung),Stadtbus,Bus,"127,227,427",53.42797192924781,10.226698422066988
KZ-Gedenkstätte (Klinkerwerk),Stadtbus,Bus,"127,227,427",53.432505692009734,10.229955665844741
Neuengammer Heerweg,Stadtbus,Bus,"127,227,424,427",53.41951999999933,10.220920000000302
Kiebitzbrack,Stadtbus,Bus,"227,424,427",53.41095999999928,10.23642000000032
Norderquerweg 42,Stadtbus,Bus,"127,322,323",53.434289212021376,10.191544006150535
Horster Moor,Stadtbus,Bus,"228,328,428",53.45241413979551,10.286186828533026
Weg zum Freibad,Stadtbus,Bus,"228,328,428",53.448199999999076,10.2939400000004
Vossmoorbrücke,Stadtbus,Bus,"228,328,428",53.44581999999905,10.297270000000406
Altengammer Marschbahndamm,Stadtbus,Bus,"228,328,428",53.44160999999904,10.301650000000414
Schule Zollenspieker,Stadtbus,Bus,"124,323,424",53.40108999999945,10.18377000000026
Riepenburger Brack,Stadtbus,Bus,"120,225,424",53.40013889480058,10.209180483923802
Gammer Weg 146,Stadtbus,Bus,"228,328,428",53.44131838735379,10.278154445102174
Schule Curslack (Kehre),Stadtbus,Bus,"127,227,323,328,427",53.448028891463785,10.221153353217781
